State,District,Latitude,Longitude,"Crop And Animal Production, Hunting And Related Service Activities",Other Mining And Quarrying,Food Products,Food Products,Food Products,Food Products,Food Products,Food Products,Food Products,Food Products,Beverages,Tobacco Products,Textiles,Textiles,Wearing Apparel,Wearing Apparel,Wearing Apparel,Leather And Related Products,Leather And Related Products,Wood And Products Of Wood And Cork,Wood And Products Of Wood And Cork,Paper And Paper Products,Printing And Reproduction Of Recorded Media,Printing And Reproduction Of Recorded Media,Coke And Refined Petroleum Products,Coke And Refined Petroleum Products,Chemicals And Chemical Products,Chemicals And Chemical Products,Chemicals And Chemical Products,"Pharmaceuticals, Medicinal Chemical And Botanical Products",Rubber And Plastics Products,Rubber And Plastics Products,Other Non-Metallic Mineral Products,Other Non-Metallic Mineral Products,Basic Metals,Basic Metals,Basic Metals,Fabricated Metal Products,Fabricated Metal Products,Fabricated Metal Products,"Computer, Electronic And Optical Products","Computer, Electronic And Optical Products","Computer, Electronic And Optical Products","Computer, Electronic And Optical Products","Computer, Electronic And Optical Products","Computer, Electronic And Optical Products","Computer, Electronic And Optical Products","Computer, Electronic And Optical Products",Electrical Equipment,Electrical Equipment,Electrical Equipment,Electrical Equipment,Electrical Equipment,Electrical Equipment,Machinery And Equipment N.E.C.,Machinery And Equipment N.E.C.,"Motor Vehicles, Trailers And Semi-Trailers","Motor Vehicles, Trailers And Semi-Trailers","Motor Vehicles, Trailers And Semi-Trailers",Other Transport Equipment,Other Transport Equipment,Other Transport Equipment,Other Transport Equipment,Other Transport Equipment,Furniture,Other Manufacturing,Other Manufacturing,Other Manufacturing,Other Manufacturing,Other Manufacturing,Other Manufacturing,Repair And Installation Of Machinery And Equipment,Repair And Installation Of Machinery And Equipment,"Electricity, Gas, Steam And Air Conditioning Supply","Electricity, Gas, Steam And Air Conditioning Supply","Electricity, Gas, Steam And Air Conditioning Supply","Water Collection, Treatment And Supply",Sewerage,"Waste Collection, Treatment And Disposal Activities","Waste Collection, Treatment And Disposal Activities","Waste Collection, Treatment And Disposal Activities",Wholesale And Retail Trade And Repair Of Motor Vehicles And Motorcycles,Wholesale And Retail Trade And Repair Of Motor Vehicles And Motorcycles,Warehousing And Support Activities For Transportation,Publishing Activities,"Motion Picture, Video And Television Programme Production","Motion Picture, Video And Television Programme Production","Other Professional, Scientific And Technical Activities","Office Administrative, Office Support And Other Business Support Activities",Repair Of Computers And Personal And Household Goods,Repair Of Computers And Personal And Household Goods,Other Personal Service Activities
,,,,Support Activities To Agriculture And Post-Harvest Crop Activities,Mining And Quarrying N.E.C.,Processing And Preserving Of Meat,"Processing And Preserving Of Fish, Crustaceans And Molluscs",Processing And Preserving Of Fruit And Vegetables, Vegetable And Animal Oils And Fats, Dairy Products," Grain Mill Products, Starches And Starch Products", Other Food Products, Prepared Animal Feeds, Beverages, Tobacco Products,"Spinning, Weaving And Finishing Of Textiles", Other Textiles," Wearing Apparel, Except Fur Apparel", Articles Of Fur, Knitted And Crocheted Apparel,"Tanning And Dressing Of Leather;  Luggage, Handbags, Saddlery And Harness; Dressing And Dyeing Of Fur", Footwear,Sawmilling And Planing Of Wood," Products Of Wood, Cork, Straw And Plaiting Materials", Paper And Paper Products,Printing And Service Activities Related To Printing,Reproduction Of Recorded Media, Coke Oven Products, Refined Petroleum Products," Basic Chemicals, Fertilizer And Nitrogen Compounds, Plastics And Synthetic Rubber In Primary Forms", Other Chemical Products, Man-Made Fibres," Pharmaceuticals, Medicinal Chemical And Botanical Products", Rubber Products, Plastics Products, Glass And Glass Products, Non-Metallic Mineral Products N.E.C., Basic Iron And Steel, Basic Precious And Other Non-Ferrous Metals,Casting Of Metals," Structural Metal Products, Tanks, Reservoirs And Steam Generators", Weapons And Ammunition, Other Fabricated Metal Products; Metalworking Service Activities, Electronic Components, Computers And Peripheral Equipment, Communication Equipment, Consumer Electronics," Measuring, Testing, Navigating And Control Equipment; Watches And Clocks"," Irradiation, Electromedical And Electrotherapeutic Equipment", Optical Instruments And Equipment, Magnetic And Optical Media," Electric Motors, Generators, Transformers And Electricity Distribution And Control Apparatus", Batteries And Accumulators, Wiring And Wiring Devices, Electric Lighting Equipment, Domestic Appliances, Other Electrical Equipment, General Purpose Machinery, Special-Purpose Machinery, Motor Vehicles, Bodies (Coachwork) For Motor Vehicles;  Trailers And Semi-Trailers, Parts And Accessories For Motor Vehicles,Building Of Ships And Boats, Railway Locomotives And Rolling Stock, Air And Spacecraft And Related Machinery, Military Fighting Vehicles, Transport Equipment N.E.C., Furniture," Jewellery, Bijouterie And Related Articles", Musical Instruments, Sports Goods, Games And Toys, Medical And Dental Instruments And Supplies,Other Manufacturing N.E.C.,"Repair Of Fabricated Metal Products, Machinery And Equipment",Installation Of Industrial Machinery And Equipment,"Electric Power Generation, Transmission And Distribution", Gas; Distribution Of Gaseous Fuels Through Mains,Steam And Air Conditioning Supply,"Water Collection, Treatment And Supply",Sewerage,Waste Collection,Waste Treatment And Disposal,Materials Recovery,Maintenance And Repair Of Motor Vehicles,"Sale, Maintenance And Repair Of Motorcycles And Related Parts And Accessories",Warehousing And Storage,"Publishing Of Books, Periodicals And Other Publishing Activities","Motion Picture, Video And Television Programme Activities",Sound Recording And Music Publishing Activities,Photographic Activities,Business Support Service Activities N.E.C.,Repair Of Computers And Communication Equipment,Repair Of Personal And Household Goods,Other Personal Service Activities
A&N Islands,NICOBER,7.158125935,93.78552753,,,,,,1,,,,,,,,,,,,,,,,,,,,,,,,,,,,,,,,,,,,,,,,,,,,,,,,,,,,,,,,,,,,,,,,,,,,,,,,,,,,,,,,,,,,,,
A&N Islands,SOUTH ANDAMANS,10.75302822,92.50143399,,,,,1,3,,,,,2,,,,,,,,,,,,,,,,1,,,,,1,,,,,,,,,,,,,,,,,,,,,,,,,,,,,,,,,,,,,,,,,,,,,,,,,,4,,,,,,,,,,
Andhra Pradesh,ALLURI SITHARAMA RAJU,17.771784,82.129763,,,,,,,,,,,,,,,,,,,,,,,,,,,,,,,,,,3,,,,,,,,,,,,,,,,,,,,,,,,,,,,,,,,,,,,,,,,,,,,,,,,,,,,,,,,,,
Andhra Pradesh,ANAKAPALLI,17.684351,83.021491,,,,4,,1,5,9,46,2,16,,4,21,10,,,,,2,10,12,,,5,5,23,15,,136,1,28,2,63,12,6,4,41,,6,,,,,,,,,3,,,,,,1,2,,,2,,,,,,6,,,,,1,2,2,,,,1,2,1,,4,2,9,,2,,,,,1,,,2
Andhra Pradesh,ANANTHAPURAMU,14.67526,77.587293,3,,,,4,24,8,58,30,,3,,8,,10,,,,,,1,,2,,,2,6,1,,1,7,24,,122,14,,1,1,,9,,,,,,,,,3,1,1,,,,2,1,,,,,,,,,,,,,,,,,,3,,,,,,2,4,22,3,6,4,,,,2,,,
Andhra Pradesh,ANNAMAYYA,13.943671,78.860353,2,,,,,,32,48,19,1,6,16,1,,2,,,,,1,,,,,,,6,1,,1,,19,,220,,,,,,,,,,,,,,,1,,,,,,1,,,,,,,,,,2,,,,,,,,,2,,,,,,,,1,,2,,,,,,,,
Andhra Pradesh,BAPATLA,15.898151,80.465022,3,,,12,1,6,20,164,30,3,4,13,22,3,,,,,,1,,9,1,,,,,1,,2,,9,,556,1,,,,,1,1,,,,,,,,1,1,,,,,,,,,,,,,,,,,,,,,,,,2,1,1,,,,1,2,,,36,,,,,,,,
Andhra Pradesh,CHITTOOR,13.48799207,78.83839435,,,2,,61,2,62,31,24,8,9,9,27,1,11,,,1,1,,,14,3,,,,2,9,,2,6,35,,401,3,,1,5,,4,2,,,,,,,,1,2,,,,,,1,,,,,,,,,,,,,1,,,,,1,,,,,,,,12,,9,,,,,,,,
Andhra Pradesh,DR.B.R.AMBEDKAR KONASEEMA,16.576537,82.003079,,,,6,,10,2,137,5,1,4,,4,14,,,,,,,,17,,,,2,1,2,,1,,5,,1,2,,,1,,1,,,,,,,,,,,,1,,,,1,,,,,,,,,5,,,,,,,,,3,,3,,,,,,,,,,,,,,,,
Andhra Pradesh,EAST GODAVARI,17.32419555,82.04036898,,,2,1,3,12,9,147,38,10,16,4,9,2,,,,,,1,7,72,3,,,4,15,11,,4,2,18,2,80,5,8,1,4,,14,,,,,,,,,2,,1,,,1,2,13,,,,,,,,,,,,,,1,4,,,3,,,,,,1,4,16,1,2,5,,,,,,,
Andhra Pradesh,ELURU,16.711759,81.10184,28,,3,5,10,15,8,97,18,22,22,1,7,1,1,,,1,,1,10,34,1,,,1,6,10,,,,16,,38,,,1,1,,1,,,,,,,,,5,,,,,,1,1,,,,,,,,,7,,,,,,7,,,,2,9,,,,,3,11,,1,,,,,,,,
Andhra Pradesh,GUNTUR,16.39336482,80.00877319,172,,,,44,26,5,190,150,7,20,66,41,1,4,,,,1,3,2,51,36,,,7,15,23,,11,1,85,4,120,5,4,7,4,,35,1,,,,1,,,,3,,,,,1,7,6,,,1,,,,,,3,2,,,,,1,1,,1,,,,,,1,1,21,,107,4,,,,1,,,
Andhra Pradesh,KAKINADA,16.953568,82.235849,,,2,42,20,31,6,133,46,8,23,,3,6,1,,,,,,,16,1,,,7,9,10,,7,1,34,,74,2,1,1,3,,8,1,,,,1,,,,1,,,,,1,1,6,1,1,4,1,,,,,1,,,,1,,,9,,6,1,12,,,,,4,15,3,2,,,,,2,,,1
Andhra Pradesh,KRISHNA,16.6127838,80.72109697,2,3,,7,5,16,4,127,10,31,11,1,10,3,3,,,2,1,2,,28,17,,,,13,15,,16,1,46,2,27,5,3,14,11,,30,,,1,,,,,,11,,2,,,,6,9,1,4,3,,,1,,1,6,13,,,,1,,,,2,,1,,,,,8,6,,1,2,,,,1,,,2
Andhra Pradesh,KURNOOL,15.64681907,78.11116981,100,,,,,30,2,58,11,1,7,2,2,,,,,1,,,,3,5,,,,12,6,,,,36,,89,2,,,,,6,,,,,,,,,,,,,,,,1,,,,,,,,,,,,,,,,1,,2,1,,,,,1,2,11,,8,3,,,,,,,
Andhra Pradesh,NANDYAL,15.489664,78.474184,63,,,,,11,10,84,,1,3,,,,1,,,,,,,,,,,,,2,,,,33,,447,,,,,,4,,,,,,,,,1,,,,,,,,,,,,,,,,,,,,,,,,,11,,,,,,1,1,3,,17,,,,,,,,
Andhra Pradesh,NTR,16.456635,80.62314,3,,,,4,2,6,62,18,7,10,1,7,1,,,1,,13,,13,18,53,,,1,12,14,,38,2,37,4,80,1,1,16,15,,58,1,,,,,,,,12,1,1,2,,,2,13,,2,7,,,1,,,10,,,,,,,5,,,,2,,1,,,11,48,3,17,6,,,,,,,
Andhra Pradesh,PALNADU,16.35384,79.834286,23,,,,3,20,18,261,10,7,,28,48,1,,,,,,1,1,15,,,,2,4,11,,11,1,28,,437,1,,2,,,4,,,,,,,,,,,,,,,,1,,1,,,,,,,,,,,,,1,,,30,,,,,,,1,,,40,,,,,1,,,
Andhra Pradesh,PARVATHIPURAM MANYAM,18.735133,83.461722,,,,,,2,,65,3,,,,,1,,,,,,,,,,,,,,2,,,,,,7,,,,1,,,,,,,,,,,,,,,,,,,,,,,,,,,,,,,,,1,,,2,,,,,,,,2,,,,,,,,,,
Andhra Pradesh,PRAKASAM,15.3514389,79.56051425,4,,,9,,,44,112,4,5,7,37,3,2,,,,,,16,6,10,3,,,1,6,9,,9,2,39,,1134,1,1,4,3,,1,,,,,,,,,,,,,,,2,1,,,,1,,,,,2,,,,,,,,,1,1,1,,,,,,17,,36,2,,,,,,,
Andhra Pradesh,SPSR NELLORE,14.2609096,79.91944044,2,,,28,3,22,34,247,13,14,21,4,4,3,4,,,,1,14,5,5,3,,,5,7,1,,10,4,32,1,63,5,2,5,1,,11,,,,,,,,,3,1,,,,,2,3,,,,,,,,,3,,,,,,,2,,3,,2,,,,3,,41,,9,4,,,,2,,,
Andhra Pradesh,SRI SATHYA SAI,14.236483,77.776153,,,,,,5,11,40,16,1,1,,33,1,13,,,,,,1,2,,,,,6,7,,5,6,9,2,43,34,1,2,7,,6,,,,,,,,,3,,,1,,,5,,1,,30,,2,,,,,,,,,,1,,,8,,,,,,,5,,,15,,,,,3,,,
Andhra Pradesh,SRIKAKULAM,18.62028135,84.01656925,1,2,,,,6,,217,236,2,11,,9,12,,,,,,,3,8,1,,,,6,4,,13,,5,,155,1,,,1,,10,,,,,,,,,,,,,,,2,1,,1,,,,,,,,,,,,1,1,,,,,1,1,,,1,2,11,2,2,4,,,,,,,
Andhra Pradesh,TIRUPATI,13.634845,79.429746,1,,,9,27,1,24,103,38,4,14,17,6,4,5,,,4,26,11,6,20,3,,2,1,37,17,1,32,4,45,5,157,9,18,39,15,,23,5,,8,4,1,,2,,8,9,5,,1,2,20,10,2,1,12,,2,,,3,2,,,,1,,1,,,3,2,,1,2,,1,,29,,4,5,,,,,1,,
Andhra Pradesh,VISHAKAPATNAM,17.7266243,82.7347128,,,1,11,2,,9,9,32,1,22,1,,4,15,,,,,2,23,22,15,,,19,12,15,,10,8,44,4,73,35,2,15,89,,29,,,4,,1,,,,11,1,,,,,6,5,,,4,2,,,,,3,4,,1,1,16,2,23,,2,,6,1,,,2,9,81,3,6,7,,,,,,,2
Andhra Pradesh,VIZIANAGARAM,18.40849542,83.33618661,1,,,2,1,6,1,108,30,1,9,,1,12,,,,,,1,13,21,2,,2,,5,5,,4,,19,,50,25,8,,3,,7,,,,,,,,,,1,1,,,,,1,,,1,,,,,,,,,,,,1,1,,2,,,,,,,4,9,1,5,,,,1,,,,
Andhra Pradesh,WEST GODAVARI,16.92037015,81.33976834,1,,,30,1,5,,225,3,10,18,,11,19,,,,,,,,31,,,,,3,3,,4,,18,1,8,1,,,,,6,,,,,,,,,,,,,,,1,1,,,,,,,,,2,,,,,,6,,,1,,3,,,,,1,9,1,5,4,,,,,,,
Andhra Pradesh,Y S R,14.57955331,78.83843464,4,,,,2,38,19,94,50,1,8,24,4,,1,,,,,1,3,17,2,,,1,31,7,,2,1,38,1,192,1,3,,1,,2,,,,,,,1,,8,,,,1,,1,1,,,,,,,,,,,,,,,1,1,,1,,,,,,1,3,22,,4,3,,,,,,,
Arunachal Pradesh,CHANGLANG,27.56970748,96.49152701,,,,,,,,,15,,,,,,,,,,,4,14,,,,11,,,,,,,,,6,,,,,,,,,,,,,,,,,,,,,,,,,,,,,,,2,,,,,,,,,,,,,,,,,,,,,,,,,,,
Arunachal Pradesh,EAST KAMENG,27.61842619,92.85770525,,,,,,,,,,1,2,,,,,,,,,,,1,,,,,,,,,,,,4,2,,,,,,,,,,,,,,,,,,,,,,,,,,,,,,,,,,,,1,,,,,,,,,,,,,,,,,,,,,
Arunachal Pradesh,EAST SIANG,28.06017417,95.35139573,,,,,,,,,1,,,,1,,,,,,,18,,,,,,,,,,,,,,5,,,1,,,,,,,,,,,,,,,,,,,,,,,,,,,,,,,,,,1,,,,,,,,,,,,,,,,,,,,,
Arunachal Pradesh,LOHIT,28.0730567,96.15337992,,,,,,,,,13,,1,3,,,,,,,,6,7,,,,,,,,,,,,,5,,,,,,,,,,,,,,,,,,,,,,,,,,,,,,,,,,,,,,,,,,,,,,,,,,,,,,,,,,
Arunachal Pradesh,LOWER DIBANG VALLEY,28.08778503,95.81325331,,,,,,,,,3,,,,,,,,,,,6,,,,,,,,,,,,,,1,,,,,,,,,,,,,,,,,,,,,,,,,,,,,,,,,,,,,,,,,,,,,,,,,,,,,,,,,,
Arunachal Pradesh,LOWER SUBANSIRI,27.59767596,93.82444863,,,,,,,,1,2,,2,,,,,,,,,7,,,,,,,,,,,,,,1,,,,,,,,,,,,,,,,,,,,,,,,,,,,,,,1,,,,,,,,,,,,,,,,,,,,,,,,,,,
Arunachal Pradesh,PAPUM PARE,27.22923113,93.50068346,,,,,,,,,3,,14,,,,,,,1,,5,,,,,3,,,,,,,,,2,7,1,,4,,1,,,,,,,,,2,,,,,,,,,,,,,,,,3,,,,,,,,,,,,,,,,,,,,,,,,,,,
Arunachal Pradesh,TIRAP,27.02342996,95.51904748,,,,,,,,,4,,1,,,,,,,,,1,3,,,,,,,,,,,,,,,,,,,,,,,,,,,,,,,,,,,,,,,,,,,,,,,,,,,,,,,,,,,,,,,,,,,,,,,
Arunachal Pradesh,UPPER SIANG,28.86577485,94.97664881,,,,,,,,,1,,,,,,,,,,,1,,,,,,,,,,,,,,,,,,,,,,,,,,,,,,,,,,,,,,,,,,,,,,,,,,,,,,,,,,,,,,,,,,,,,,,,
Arunachal Pradesh,UPPER SUBANSIRI,28.33969027,93.98852413,,,,,,,,,,1,,,,,,,,,,1,,,,,,,,,,,,,,,,,,1,,,,,,,,,,,,,,,,,,,,,,,,,,,,,,,,,,,,,,,,,,,,,,,,,,,,,,
Arunachal Pradesh,WEST KAMENG,27.34761847,92.30244074,,,,,,,,,,,3,,,,,1,,,,2,,,,,,,,1,,,,,,2,1,,,1,,,,,,,,,,,,,,,,,,,,,,,,,,,,,,,,,,,,,,,,,,,,,,,,,,,,,,
Arunachal Pradesh,WEST SIANG,28.18187578,94.52084496,,,,,,,,,1,,2,,,,,,,,,4,,,,,3,,,,,,,,,5,,,,,,,,,,,,,,,,,,,,,,,,,,,,,,,,,,,,,,,,,,,,,,,,,,,,,,,,,,
Assam,BAKSA,26.69934879,91.59942058,,,,,1,1,,,4,,,,1,,,,,,,1,,,,,,,,1,,,,,,33,,,,,,,,,,,,,,,,,,,,,,,,,,,,,,,,,,,,,,,,,,,,,,,,,,,,,,,,,,
Assam,BARPETA,26.3268062,90.98171817,,,,,,7,1,12,2,,2,1,,,,,,,,6,8,,,,,,,,,,,1,,60,,,,,,,,,,,,,,,1,,,,,,,,,,,,,,,,,,,,,,,,,,,,,,,,,2,,1,,,,,,,,
Assam,BONGAIGAON,26.37595685,90.63902158,,,,,,,,2,2,,2,1,,,,,,,,,,,,,3,,,1,,,,3,,61,,,,,,2,,,,,,,,,1,,,,,,,,,,,,,,,,,,,,,,,,,,2,,,,,,,1,,,,,,,,,,
Assam,CACHAR,24.779388,92.876002,,,,,1,,1,16,53,,14,,,,,,,,,13,,4,1,,,2,2,,,,1,15,,232,6,1,,3,,9,,,,,,,,,1,,,,,,,,,,,,,,,,1,,,,,,,9,,,,,,,,,,12,,3,,,,,,,,
Assam,CHIRANG,26.70671679,90.52646366,,,,,,,,3,,,1,1,,,,,,,,,1,,,,1,2,,,,,,,,3,,,,,,,,,,,,,,,,,,,,,,,,,,,,,,,,,,,,,,,,,,,,,,,,1,,,,,,,,,,
Assam,DARRANG,26.45636055,92.1057496,,,,,2,14,,12,14,,3,,1,1,,,,,,,,1,,,,1,,,,,,4,,58,,,,1,,,,,,,,,,,2,,,,,,,,,,,,,,,,1,,,,,,,,,,,,,,,,,,,,,,,,,,,
Assam,DHEMAJI,27.61357424,94.76881003,,,,,,1,,9,6,,2,,,,,,,,,,,,,,,,,,,,,1,,4,,,,,,,,,,,,,,,,,,,,,,,,,,,,,,,,,,,,,,,,,,,,,,,,,,,,,,,,,,
Assam,DHUBRI,26.09415375,90.11275093,,,,,9,1,,8,9,,2,3,,,,,,,,6,,1,,,,,,,,1,,2,,118,,2,,,,,,,,,,,,,,,,,,,,,,,,,,,,,,,,,,,,,,,,,,,,,,,,,,,,,,,,
Assam,DIBRUGARH,27.37357499,94.97664874,,,,,,,1,10,150,,11,,1,1,,,,,,1,,2,1,,,,10,,,2,2,13,,152,7,,,6,,4,,,,,,,,,,,,,,,2,4,,,,,,,,,1,,,1,,,,5,,1,2,,,,,,,13,,,,,,,,,1,
Assam,GOALPARA,26.09278812,90.63970821,,,,,1,2,,2,4,,2,,,,,,,,,2,,2,,,,2,,2,,,1,,,48,,1,,,,,,,,,,,,,2,1,,,,,,,,,,,,,,,,,,,,,,,,,1,,,,,,,,1,,,,,,1,,,
Assam,GOLAGHAT,26.46601528,93.98612079,,,,,,3,,24,112,,9,,,,,,,,,6,,,,,,1,1,,,1,,3,,95,,,,1,,1,,,,,,,,,1,1,,,,,,,,,,,,,,,,,,,,,,1,,,1,,,,,,,3,,1,,,,,,,,
Assam,GUWAHATI,26.150968,91.72003,,,,,,1,2,20,26,,21,3,6,2,1,,,,,4,3,26,21,,22,2,5,25,,8,1,72,1,85,28,,1,4,,10,1,,,,,,,,6,,,1,,,1,1,,4,,,,,,,4,,,,,,,2,,,,,,,,,,34,,,2,,,,1,,1,
Assam,HAILAKANDI,24.46045356,92.57958614,,,,,,,,2,19,,1,,,,,,,,,2,,,,,,,,,,,,,,32,,,,,,,,,,,,,,,,,,,,,,,,,,,,,,,1,,,,,,,,,,,,,,,,,,,1,,,,,,,,
Assam,JORHAT,26.69166794,94.27504416,,,,,3,1,1,37,93,1,14,,,,,,,,,,2,7,1,,,1,1,6,,,2,8,,86,,,,4,,6,,,,,,,,,2,2,3,,,,,,,,,,,,,,,,,,,,,,1,,,,,,,,,8,8,1,,,,,,,,
Assam,KAMRUP,25.94601049,91.28875496,,,1,,29,2,6,36,95,13,42,1,6,8,1,,,,,17,13,94,23,,9,18,13,68,1,27,8,208,8,287,33,14,5,18,1,41,1,,,,,,,,13,,3,12,7,12,4,1,1,,,,1,,,,29,,,,,2,,5,,,2,,,,,,2,26,3,5,2,,,,3,,1,
Assam,KARBI ANGLONG,26.19160696,93.5798906,,,,,1,,,2,12,,6,,,,,,,,,,,,,,,,,,,,,1,,13,1,,,,,,,,,,,,,,,,,,,,,,,,,,,,,,,,,,,,,,,,,,,,,,,,,,,,,,,,,
Assam,KARIMGANJ,24.60645638,92.38170005,,,,,,,,1,16,,4,,,,,,,,,3,,,,,,,1,1,,,,5,,95,,,,,,1,,,,,,,,,,,,,,,,,,,,,,,,,,,,,,,,,,,,,,,,,,1,,2,,,,,,,,
Assam,KOKRAJHAR,26.51897587,90.07467141,,,,,,1,,3,7,,3,2,,,,,,,,4,,,,,,,,,,,,,,19,,,,,,,,,,,,,,,1,,,,,,,,,,,,,,,,,,,,,,,,,,,,,,,,,,,,,,,,,,,
Assam,LAKHIMPUR,27.21183059,94.15102781,,,,,,,,14,18,,2,,,,,,,,,,2,,,,,,,,,,,3,,35,1,,,,,,,,,,,,,,,,,,,,,,,,,,,,,,3,,,,,,,,,,,,,,,,,1,,,,,,,,,,
Assam,MARIGAON,26.26579167,92.26303399,,,,,,,1,9,2,1,1,,,,,,,,,,1,1,,,,,2,1,,,,,,103,,,,,,,,,,,,,,,,,,,,,,,,,,,,,,,1,,,,,,,,,,,,,,,,,2,,,,,,,,,,
Assam,NAGAON,26.30458813,92.6983815,,,,,,10,1,73,34,,17,,3,3,,,,,,8,1,1,,,,1,,1,,,,9,,213,2,,1,1,,3,,,,,,,,,2,,,,,,,1,,,,,,,,,2,,,,,,,,,1,1,,,,,,,9,,,,,,,1,,1,
Assam,NALBARI,26.37052269,91.40344631,,,,,3,2,,6,9,1,6,,,,,,,,,,,,,,,1,,1,,1,,2,,31,,,,1,,2,,,,,,,,,,,,,,,,1,,,,,,,,,,,,,,,,,,,,,,,,,,1,,,,,,,1,,,
Assam,NORTH CACHAR HI,25.406997,93.040801,,,,,,,,1,1,,,,,,,,,,,,,,,,,,,,,,,,,5,,,,,,,,,,,,,,,,,,,,,,,,,,,,,,,,,,,,,,,,,,,,,,,,,,,,,,,,,,
Assam,SIBSAGAR,27.00764476,94.64434308,,,,,,1,,14,104,,3,,1,,,,,,,,,,1,,,,,1,,,,1,,198,,,,,,2,,,,,,,,,1,1,,,,,,,,,,,,,,,1,,,,,,,1,1,,,,,,,,,4,,,,,,,,,,
Assam,SONITPUR,26.68432504,92.69941148,,,,,,3,,30,135,5,2,,,,,,,,,5,1,10,,,,,1,5,,2,,4,,264,,1,,4,,3,,,,,,,,,1,,,,,,,2,,1,,,,,,,4,,,,,,,,,1,,,,,,,,11,1,1,,,,,,,,
Assam,TINSUKIA,27.53458669,95.64544653,,,,,3,1,1,14,200,1,13,,1,1,,,,,,1,5,9,3,,34,1,6,3,1,,2,18,,151,8,,1,3,,7,,,,,,,,,5,3,1,,,,1,4,,,,,,,,,8,,,,,,,6,,,,,,,,,,5,,4,,,,,,,,
Assam,UDALGURI,26.69582681,91.90991851,,,,,,,,16,59,,,,,,,,,,,,,,,,,,,,,,,1,,20,,,,,,,,,,,,,,,,,,,,,,,,,,,,,,,,,,,,,,,,,,,,,,,,,,,,,,,,,,
Bihar,ARARIA,26.11603152,87.30195121,,,3,,,1,,7,1,1,,,,,,,,,,,29,,,,,1,2,,,,,,,2,,,,,,,,,,,,,,,,,,,,,,,,,,,,,,,,,,,,,,,,,,,,,,,,1,,2,,,,,,,,
Bihar,ARWAL,25.16927532,84.66917277,,,,,,,,3,,,,,,,,,,,,,,,,,,,,,,,,,,,,,,,,,,,,,,,,,,,,,,,,,,,,,,,,,,,,,,,,,,,,,,,,,,,,,,,,,,,,
Bihar,AURANGABAD,19.89333773,75.15436506,,,,,,1,,36,,,,,,1,,,,,,,,,,,8,10,,,,,,1,,32,1,1,,2,,,,,,,,,,,,,,,,,,,,,,,,,,1,,,,,,,,,,,,,,,,,,1,,,,,,,,,,
Bihar,BANKA,24.78097712,86.82202873,,,,,,,,11,1,,1,,,,,,,,,,,,,,,2,,,,,,,,3,,,,,,,,,,,,,,,,,,,,,,,,,,,,,,,,,,,,,,,,5,,,,,,,,1,,,,,,,,,,
Bihar,BEGUSARAI,25.52395769,86.17379727,,,,,2,,6,8,1,4,1,,,,,,1,,,1,1,,,,11,8,3,1,,1,,2,,29,3,,2,5,,,,,,,,,,,,,1,,,,3,,,,,,,,,,1,,,,,,,1,,,,,,,,,1,3,1,17,,,,,,,,
Bihar,BHAGALPUR,25.40159771,86.98261552,,,,,1,,1,7,4,1,2,,1,,1,,,,,,,,2,,,,,1,,,,,,51,,,,1,,,,,,,,,,,,,,,,,,1,,,,,,,,,,,,,,,,,,,,,,,,,,2,,2,3,,,,,,,
Bihar,BHOJPUR,25.4720212,84.52187024,,,,,,,1,36,1,,3,,,,,,,,,2,,,,,1,5,,,,,,,,7,,,1,16,,1,,,,,,,,,,,,,,1,,,,,,,,,,,,,,,,,,,,,,,,,,,,,,1,,,,,,,,
Bihar,BUXER,25.56965972,83.97873203,,,,,,1,,57,,,1,,,,,,,,,2,,1,,,,1,1,,,,,,,1,,,,,,,,,,,,,,,,,,,,,,2,,,,,,,,,,,,,,,,,,,,,,,,,,,,2,,,,,,,,
Bihar,CHAMPARAN(E),26.621634,84.957459,,,,,,1,2,27,2,1,1,2,,,,,,,1,1,19,1,,,,2,,,,,,,,11,,,1,,,1,,,,,,,,,,,,,,,,2,,,,,,,,,,,,,,,,,,,,,,,,,,1,,18,,,,,,,,
Bihar,CHAMPARAN(W),27.09449,84.337732,,,,,,,,20,6,3,4,4,,,,,,,,3,9,1,,,,1,,1,,,,1,,6,2,,,1,,,,,,,,,,,,,,,,,,,,,,,,,,,,,,,,,,,,2,,,,,,,,1,,3,,,,,,,,
Bihar,DARBHANGA,26.08658472,86.01112202,,,,,1,,1,8,2,4,,,,,,,,,,,1,2,1,,,,1,1,,,,1,,136,,1,,1,,2,,,,,,,,,,,,,,,,,,,,,,,,,,,,,,,,,,,,,,,,,,,,2,,,,,,,,
Bihar,GAYA,24.72724666,84.85816112,,,,,,,1,22,3,1,,6,,,,,,,,,,,,,,6,1,1,,,,5,,119,,1,,,,1,,,,,,,,,1,,,,,,,,,,,,,,,,,,,,,,,,,3,,,,,,,,2,,3,1,,,,,,,
Bihar,GOPALGANJ,26.45687561,84.39590488,,,,,,,1,7,3,1,3,,,,,,,,,4,1,,,,,,,,,,,,,9,,,,,,1,,,,,,,,,,,,,,,,,,,,,,,,,1,,,,,,,,,,,,,,,,,,,1,,,,,,,,
Bihar,JAMUI,24.76871815,86.33698409,,,,,,,1,8,,1,,9,,,,,,,,,,,,,,,,,,,,,,8,,,,,,,,,,,,,,,,,,,,,,,,,,,,,,,,,,,,,,,,,,,,,,,,1,,,,,,,,,,
Bihar,JEHANABAD,25.15684291,84.98174865,,,,,,,,8,,,,,,,,,,,,,,,,,,,,,,,,1,,26,,,,,,,,,,,,,,,,,,,,,,,,,,,,,,,,,,,,,,,,,,,,,,,,,,,,,,,,,,
Bihar,KAIMUR(BHABUA),25.04788769,83.60591117,,,,,,5,,79,1,4,,,1,,,,,,,,1,1,,,8,5,,,,,,6,,3,,,,1,,,,,,,,,,,,,,,,,,,,,,,,,,,,,,,,,,,,,,,,,,,,,,,,,,,,,,
Bihar,KATIHAR,25.55501333,87.61897589,,,,,,,,5,1,,1,,1,2,,,,,,,,1,,,,,,1,,,,1,,42,,,,2,,,,,,,,,,,,,,,,,,,,,,,,,,,,,,,,,,1,,,,,,,,,,1,,3,,,,,,,,
Bihar,KHAGARIA,25.48906232,86.70104074,,,,,,,,,,2,,,,,,,,,,,,,,,,,,,,,,1,,5,,,,,,,,,,,,,,,,,,,,,,,,,,,,,,,,,,,,,,,,,,,,,,,,,,2,,,,,,,,
Bihar,KISHANGANJ,26.31361613,87.77735796,,,2,,,,,6,8,,,,1,,,,,,,,6,2,,,,,1,2,,,,2,,28,,,,,,1,,,,,,,,,,,,,,,,,,,,,,,,,,,,,,,,,,,,,,,,,,1,,3,,,,,,,,
Bihar,LAKHISARAI,25.19255177,86.1337777,,,,,,,,6,,,,,,,,,,,,,,,,,,,,4,,,,,,8,,,,,,,,,,,,,,,,,,,,,,,,,,,,,,,,,,,,,,,,,,,,,,,,,,,,,,,,,,
Bihar,MADHEPURA,25.87328046,86.9427181,,,,,,,,5,1,,,,,,,,,,,,5,,,,,,,,,,,,,1,,,,,,,,,,,,,,,,,,,,,,,,,,,1,,,,,,,,,,,,,,,,,,,,,,,,,,,,,,,
Bihar,MADHUBANI,26.46830405,86.17482728,,,,,,,1,10,1,1,1,,,,,,,,,,,,,,,,,,,,,,,41,,,,,,,,,,,,,,,,,,,,,1,,,,,,,,,,,,,,,,,,,,,,,,,,,,,,,,,,,,,
Bihar,MUNGER,25.2016195,86.53937541,,,,,,,1,4,,,,1,,,,,,,,,,1,,,,,,,,,,1,,16,,,,,21,,,,,,,,,,,,,,,,,,,,,,,,,,,,,,,,,,1,,,,,,,,,2,,,1,,,,,,1,
Bihar,MUZAFFARPUR,26.07127655,85.52036201,,,,,4,1,3,39,12,17,4,1,,,3,,,,,3,22,6,5,,1,4,3,2,,1,,15,,28,2,,1,5,,3,,,,,1,,,,,1,,,,,1,2,,,,,,,,2,1,,,,,2,,,,,,,,,,,,2,,9,1,,,,,,,
Bihar,NALANDA,25.26774841,85.47914448,,,,,3,,1,10,,2,1,1,,,,,,,,,,1,,,,,1,2,,,,,,12,,1,,2,,,,,,,,,,,,,,,,,,,,,,,,,,,,,,,,,,1,,,,,,,,,,1,,25,,,,,,,,
Bihar,NAWADA,24.74783696,85.51898866,,,,,,,1,,,,,,,,,,,,,1,1,,,,,,,,,,,,,4,,,,,,,,,,,,,,,,,,,,,,,,,,,,,,,,,,,,,,,,2,,,,,,,,1,,,,,,,,,,
Bihar,PATNA,25.49270547,85.02250038,,,,,1,1,6,98,31,3,16,,,,5,,,1,2,,22,30,28,,1,2,6,9,,14,,64,5,267,50,4,3,10,,19,,,,,,,,,3,,2,2,,1,4,8,,,,,1,,,4,6,,,,,4,,1,,,2,,,,,,1,49,2,11,1,,,,,,,1
Bihar,PURNIA,25.73424219,87.14194085,,,,,1,,1,16,5,7,1,1,3,,,,,,,,33,,,,,2,1,1,,,,5,1,14,1,,1,1,,,,,,,,,,,,1,,,,,,,,,,,,,,1,,,,,,,,,,,,,,,,,,5,,6,,,,,,,,
Bihar,ROHTAS,25.07540649,84.01708027,,,,,,1,1,184,,,,,1,,,,,,,,,,,,13,5,,,,,,,,129,,,,,,,,,,,,,,,,,,,,,,1,,1,,,,,,,1,,,,,,,1,,,,,,,,,,,,2,,,,,,,,
Bihar,SAHARSA,25.86556466,86.62078898,,,,,,,,7,,,,,,,,,,,,,2,,,,,,,1,,,,,,15,,,,,,,,,,,,,,,,,,,,,,,,,,,,,,,,,,,,,,,,,,,,,,,,1,,1,,,,,,,,
Bihar,SAMASTIPUR,25.7516811,85.88920645,1,,,,1,,2,16,2,4,,,2,,,,,,,,3,,,,,,,1,,,,3,,26,,,,1,,,,,,,,,,,,,,,,,,,,,,,,,,,,,,,,,,,,,,,,,,,,,,30,,,,,,,,
Bihar,SARAN,25.86119865,84.85678788,,,,,,,,6,,1,,,,,,,,,,,,,,,,1,,,,,,1,,12,,,,1,,,,,,,,,,,,,,,,,,,,,,,1,,,1,,,,,,,,,,,,,,,,,,1,1,12,,,,,,,,
Bihar,SHEKHPURA,25.09034867,85.88817646,,,,,,,,4,,,,,,,1,,,,,,,,,,,5,,,,,,,,7,,1,,,,,,,,,,,,,,,,,,,,,,,,,,,,,,,,,,,,,,,,,,,,,,,,,,,,,,,,
Bihar,SHEOHAR,26.48921605,85.31395983,,,,,,,,,,,,,,,,,,1,,,,,,,,,,,,,,,,,,,,,,,,,,,,,,,,,,,,,,,,,,,,,,,,,,,,,,,,,,,,,,,,,,,,,,,,,,
Bihar,SITAMARHI,26.63767838,85.521392,,,,,,,,7,1,,1,,,,,,,,,1,15,,,,,,,,,,,,,20,,,,,,1,,,,,,,,,,,,,,,,1,,,,,,,,,,,,,,,,,,,,,,,,,,1,,2,,,,,,,,
Bihar,SIWAN,26.17473961,84.39693484,,,,,,,1,4,1,1,1,1,,,,,,,,4,,,,,,,,,,,,,,2,,,1,,,2,,,,,,,,,,,,,,,,,,,,,,,,,4,,,,,,,,,,1,,,,,,,,,3,,,,,,,,
Bihar,SUPAUL,26.29450485,86.8220288,,,,,,,1,12,,,,,,,,,,,,,10,,,,,,,,,,,,,6,,,,,,1,,,,,,,,,,,,,,,1,,,,,,,,,,,,,,,,,,,,,,,,,,,,,1,,,,,,,,
Bihar,VAISHALI,25.68936658,85.35564632,,,,,2,1,8,18,18,8,7,,,2,1,,,1,1,,3,6,,,,,2,3,,7,,19,,13,,,,,,1,,,,,,,,,1,1,,,,1,,,,,,,,,,1,5,,,,,3,,,,,,,,,,,,1,,17,1,,,,,,,
Chandigarh,CHANDIGARH,30.73771525,76.78009944,1,,,,,2,1,4,4,,6,,1,,,1,,,,,3,3,6,,,,2,1,,2,3,3,,5,20,2,1,1,,45,1,,,,2,1,,,2,,5,1,1,4,11,12,,1,10,,3,,,2,5,,,,,2,,,,,,,,,,,,33,1,,1,,,1,,,,
Chattisgarh,Balarampur,23.611356,83.61129,,,,,,,,32,,,,,,,,,,,,,,,,,,,,,,,,,,2,,,,,,,,,,,,,,,,,,,,,,,,,,,,,,,,,,,,,,,,,,,,,,,,,,2,,,,,,,,
Chattisgarh,Balod,20.77759187,81.25205359,,,,,,1,,101,2,,,,,,4,,,,,1,,,,,,,,1,,,,,,8,1,,,,,,,,,,,,,,,,,,,,,,,,,,,,,,,,,,,,,,,,,,,,,,,,,2,,,,,,,,
Chattisgarh,Balodabazar,21.58631066,82.30228642,,,,,,,,415,3,7,,1,,,,,1,,,2,1,,,,,,,,,,,2,,31,2,,1,1,,,,,,,,,,,,,,,,,,,,1,,,,,,,,,,,,,,,,5,,,,,,,,3,,2,,,,,,,,
Chattisgarh,BASTAR,19.11004677,81.95348011,,,,,1,,1,36,7,,,,1,,,,,,,4,1,,2,,,,,,,,,,,10,13,1,,1,,,,,,,,,,,,,,,,,,,,,,,,,,,1,,,,,,,,,,,,,,,,,7,2,10,,,,,,,,
Chattisgarh,Bemetara,21.6874868,81.47200899,,,,,1,1,,110,,3,1,,,,,,,,1,,1,2,,,,,1,3,,,,3,,5,3,1,,,,1,,,,,,,,,1,,,,,,1,,,,,,,,,,1,,,,,,,,,2,,,,,,,,,,8,,,,,,,,
Chattisgarh,BIJAPUR,18.797687,80.813746,,,,,,,,1,,,,,,,,,,,,,,,,,,,,,,,,,,,,,,,,,,,,,,,,,,,,,,,,,,,,,,,,,,,,,,,,,,,,,,,,,,,,,,,,,,,,
Chattisgarh,BILASPUR,22.079467,82.140793,,,,,,5,1,151,10,1,6,5,1,,,,,,5,,2,2,3,,1,6,4,5,,1,3,11,1,38,18,5,1,1,3,12,1,,,,,,,,3,,1,,,,5,7,,2,1,,,,,,4,,,,,,1,1,,2,,,,,,1,,12,1,3,,,,,,,,
Chattisgarh,DANTEWADA,18.8482244,81.38393121,,,,,,,,1,,,,,,,2,,,,,,,,,,,,,1,,,,,,,1,,,,,,,,,,,,,,,,,,,,,,,,,,,,,,,,,,,,,,,,,,,,,,,,,1,,,,,,,,
Chattisgarh,DHAMTARI,20.61503874,81.77887238,,,,,,2,,201,,,,3,1,,,,,,,3,,,,,,,3,2,,2,,2,,9,,,,1,,1,,,,,,,,,,,,,,,,2,,,,,,,,,,,,,,,,,,2,,,,,,,,3,1,6,,,,,,,,
Chattisgarh,DURG,21.16549528,81.42686706,3,,,,1,5,3,133,20,2,4,1,,2,,,,,,2,3,2,2,,8,10,18,13,,,5,8,1,64,155,6,11,63,,67,1,,,,1,,,,1,,2,,,1,20,26,,2,1,,7,,,,11,,,,,1,,2,,7,1,,,,,,2,16,,3,,,,,,,,
Chattisgarh,Gariyaband,20.26178487,82.30224071,,,,,,,,48,,,,1,,,,,,,,,,,,,,,,,,,,,,1,,,,,,,,,,,,,,,,,,,,,,,,,,,,,,,,,,,,,,,,,,,,,,,,,,,,,,,,,,
Chattisgarh,Gaurela Pendra Marwahi,22.815718,81.989939,,,,,,,,2,,,,,,,,,,,,,,,,,,,,,,,,,,,,,,,,,,,,,,,,,,,,,,,,,,,,,,,,,,,,,,,,,,,,,,,,,,,,,,,,,,,,
Chattisgarh,JANJGIR CHAMPA,21.97341324,82.47493101,,,,,,,,238,4,,,1,,,,,,,,,,1,,,1,2,1,3,,1,,1,,65,3,,,,,4,,,,,,,,,,,,,,,,2,1,1,,,,,,,2,,,,,,,,,5,1,,1,,,,,5,,,,,,,,,,
Chattisgarh,JASHPUR,22.79249347,83.84660941,,,,,,,,16,3,,,,,,,,,,,,,,,,,,,,,,,,,7,,,,,,,,,,,,,,,,,,,,,,,,,,,,,,,,,,,,,,,,,,,,,,,,,,4,,,,,,,,
Chattisgarh,KANKER,20.26459127,81.3835879,,,,,,,,37,,,,3,,,,,,,,,,,,,,,,,,,,,,4,,,,,,,,,,,,,,,,,,,,,,,,,,,,,,,,,,,,,,,,,,,,,,,,2,,1,,,,,,,,
Chattisgarh,KAWARDHA,22.080488,81.21792,,,,,,1,,66,45,,,,,,,,,,,,1,3,,,,,1,1,,,,,,4,,,,,,,,,,,,,,,,,,,,,1,,,,,,,,,,,,,,,,,,,,,,,,,,,,,,,,,,,,,
Chattisgarh,Khairagarh Chhuikhadan,21.569742,80.94557,,,,,,,,3,,,,,,,,,,,,,,,,,,,,,,,,1,,,,,,,,,,,,,,,,,,,,,,,1,,,,,,,,,,,,,,,,,,,,,,,,,,,,,,,,,,,,,
Chattisgarh,Kondagaon,19.592692,81.66162643,,,,,,,,29,,,,,,1,,,,,,,,,,,,,,,,,,,,,,,,,,,,,,,,,,,,,,,,,,,,,,,,,,,,,,,,,,,,,,,,,,,,1,,3,,,,,,,,
Chattisgarh,KORBA,22.55292316,82.6490254,,,,,,,,32,1,3,,,,,,,,,,2,1,1,,,1,1,3,2,,,1,,,17,3,9,1,1,,2,,,,,,,,,1,1,2,,,,1,8,,3,,,,,,,7,,,,,,,2,,1,,,,,,,,10,,2,,,,,,,,
Chattisgarh,KORIYA,23.39736,82.501758,,,,,,1,,24,1,,,,,,,,,,,,,,,,,,,1,,,,,,9,,,,,,1,,,,,,,,,,,,,,,,,,,,,,,,,,,,,,,,,,,,,,,,,,,,2,,,,,,,,
Chattisgarh,MAHASAMUND,21.26822198,82.60477331,,,,,,4,2,165,6,1,1,2,,1,,,,,,,1,,,,,1,1,11,,5,2,6,,8,1,1,,2,,,,,,,,,,,,,,,,,,1,,,,,,,,,,,,,,,,,,3,,,,,,,1,2,,,,,,,,,,
Chattisgarh,MANENDRAGARH CHIRMIRI BHA,23.556206,82.121144,,,,,,,,,,,,,,,,,,,,,,,,,,,,,,,,,,1,,,,,,,,,,,,,,,,,,,,,,,,,,,,,,,,,,,,,,,,,,,,,,,,,,,,,,,,,,
Chattisgarh,Mungeli,22.17732415,81.73596651,,,,,,,,35,2,1,1,,,,,,,,,,,,,,,,,,,,,,,5,1,,,,,,,,,,,,,,,,,,,,,,,,,,,,,,,,,,,,,,,5,,,,,,,,,,,,,,,,,,
Chattisgarh,NARAYANPUR,19.72278395,81.24702425,,,,,,,,,,,,,,,,,,,,,,1,,,,,,,,,,,,,,,,,,,,,,,,,,,,,,,,,,,,,,,,,,,,,,,,,,,,,,,,,,,,,,,,,,,,,,
Chattisgarh,RAIGARH,21.894351,83.395933,,,,,,2,1,157,3,2,4,4,,,,,,,,1,,3,,,,1,7,3,,,,,,71,86,1,5,3,,4,,,,,,,,,2,,,,,,2,1,,2,,,,,,,1,1,,,,,,,,3,,,,,,,1,7,,3,1,,,,,,,
Chattisgarh,RAIPUR,21.37195393,81.77818575,2,,,,1,9,6,291,40,13,3,7,8,4,,,,,,2,52,30,18,,7,12,24,54,,7,13,95,4,99,381,12,32,43,,55,3,,,1,,,,,17,1,2,2,,5,15,17,1,1,1,,9,,,1,12,,,1,,,,3,,5,,,,,,1,10,32,2,29,1,,,,2,,,
Chattisgarh,RAJNANDGAON,21.13732945,80.89864883,,,,,,4,2,159,13,6,1,1,1,4,,,,,,4,9,8,1,,,1,9,1,,,6,12,,60,10,2,2,7,,6,,,,,1,,,,1,,2,,,,5,4,,,,,,,,1,,,,,,,1,,,,,,,,,,,5,,1,,,,,,,,
Chattisgarh,Sarangarh Bilaigarh,21.620616,83.048785,,,,,,,,15,,,,,,,,,,,,,,,,,,,,,,,,,,,,,,,,,,,,,,,,,,,,,,,,,,,,,,,,,,,,,,,,,,,,,,,,,,,,,,,,,,,,
Chattisgarh,Shakti,22.021366,82.96372,,,,,,,,17,,,,,,,,,,,,,,,,,,,,,,,,,,,,,,,,,,,,,,,,,,,,,,,,,,,,,,,,,,,,,,,,,,,,,,,,,,,,,,,,,,,,
Chattisgarh,Sukma,18.13651967,81.25171024,,,,,,1,,2,,,,,,,,,,,,,,,,,,,,,,,,,,,,,,,,,,,,,,,,,,,,,,,,,,,,,,,,,,,,,,,,,,,,,,,,,,,,,,,,,,,,
Chattisgarh,Surajpur,23.50836496,82.82096859,,,,,,1,,36,2,,,,,,,,,,,,,,,,,,1,,,,,1,,6,1,,,,,,,,,,,,,,,,,,,,,,,,,,,,,,2,,,,,,,,,1,,,,,,,,,,3,,,,,,,,
Chattisgarh,SURGUJA,22.95539332,83.16489466,,,,,,,,65,5,2,,,,,,,,,,,,,,,,,1,,,,1,6,,19,3,,1,1,,2,,,,,,,,,,,,,,,,,,,,,,,,,1,,,,,,,,,1,1,,,,1,,,3,3,9,,,,,,,,
Dadra & Nagar Haveli & Daman &,D.& N.HAVELI,20.1809,73.0169,,,,,1,,,4,2,,,,194,60,5,,1,1,,,6,87,2,,,25,42,103,28,16,11,311,2,40,35,55,4,17,,26,,,1,,3,1,,,22,,33,1,1,1,17,14,,,,,,,,1,5,,,,1,,4,,,,,,,,,1,,,,,,,,,,,,
Dadra & Nagar Haveli & Daman &,DAMAN,20.40876759,72.83904368,,,,,,2,1,,8,1,18,,43,14,27,,,,1,,2,69,7,,,7,46,63,17,54,6,758,14,3,7,37,2,3,,28,2,4,3,,,,,,20,,39,29,9,7,13,15,,,9,,,,,,7,,,,1,3,21,,,,,,,,,,,,,,,,,,,,,
Delhi,CENTRAL,28.68759768,77.22864235,,,,,,,,,,,,,,1,,,,,1,,,,3,,,,,,,,,1,,,1,,1,5,2,5,,,,1,,,,,,,,,,2,3,4,,,10,,,,,1,,,,,,,,,,,,,,,,,,9,1,,1,,,,,,,1
Delhi,EAST,28.63154003,77.30303115,,,1,,,,1,,2,,,18,,4,11,,,1,2,,,6,16,,,,,7,,3,,10,,1,,11,,,,16,,,,5,1,,,,,,4,1,,3,4,,,2,3,,,,,1,1,,,,1,1,1,,,,,,,,,,,24,4,,1,,,,,,,
Delhi,NEW DELHI,28.60054225,77.1715176,,,,,,,1,,1,,,7,,4,8,,1,,,,,2,12,,,,,1,,,,,,,,,,,,2,,,1,,,,,,1,,1,,,1,2,,,,,,,,,,,,,,,,1,,,,,,,,,,,27,,,1,,,,,,,
Delhi,NORTH,28.78011556,77.12515698,,,,,,,,3,4,,,1,1,1,2,,1,,4,,,1,4,,,,,2,2,,,6,,1,1,1,1,1,,3,,,,2,2,,,,1,1,2,1,3,1,1,,,1,1,,,,,,,,,,,1,,,,,,,,1,,1,,18,1,1,1,,,,,,,
Delhi,NORTH EAST,28.73037297,77.25672193,,,,,,,,,,,,,,,,,,,,,,1,2,,,,1,2,,,,3,,,,,1,,,2,,,,,,,,,,,1,1,,1,,2,,,1,,,,,,,,,,,,,,,,,,1,,,,,9,3,,,,,,,,,1
Delhi,NORTH WEST,28.73451939,77.02258335,,,,,5,,,62,28,,,1,4,15,38,,2,3,71,,,22,24,,,,6,11,3,11,13,67,6,4,67,5,2,4,,129,2,,,2,2,,,,16,,21,5,9,3,18,24,,3,50,,,,,5,2,1,1,1,2,4,4,4,,2,,,,1,,1,,78,2,11,,,,,2,,,
Delhi,SHAHDARA,28.67681478,77.3037178,,,,,,,,,,,,1,,,,,,,,,,,,,,,,,,,,1,,,,,,,,,,,,,,,,,,,1,,,,,,,,,,,,,,,,,,,,,,,,,,,,,,,5,1,,,,,,,,,
Delhi,SOUTH,28.47573488,77.18336241,,,,,3,,1,2,9,,,,4,37,187,,,2,,,3,13,88,,,,1,14,,4,2,23,2,,2,,2,3,,30,7,2,2,11,4,,,,21,1,4,5,1,3,25,7,,,2,,2,,,3,2,7,,,,8,1,,,1,,,1,,,,,72,1,2,,,,,,1,2,
Delhi,SOUTH EAST,28.55394102,77.27602116,,,,,,,,,3,,,2,,,16,,,,1,1,,1,7,,,,,1,,2,,,,,2,,,,,1,,1,,1,3,,,,1,,2,,1,,,2,,,,,,,,,3,,,1,1,2,1,1,,1,,,,,,1,,19,1,,,,,,,,1,
Delhi,SOUTH WEST,28.58339359,76.9873425,,,,,,,1,,2,,,5,5,1,15,,,1,1,,1,4,26,,,,1,3,,2,,5,1,6,,,1,1,,14,,,1,1,1,,,,,1,2,,1,,9,3,,2,1,,,,,,1,1,,,,3,1,1,,,,,,,,,,37,,,1,,,,,2,,
Delhi,WEST,28.67053566,77.06761048,,,1,,,1,,,11,,1,8,3,12,49,,,,66,,,13,62,,,1,5,3,,9,4,35,1,1,1,1,3,3,,41,5,,2,7,5,,,,18,,4,8,5,6,29,33,,,25,,1,,,6,7,,,1,1,4,12,3,,,,,,,,,,64,1,,,,,,,,1,
Goa,NORTH GOA,15.51878845,73.98282983,,,1,4,,2,3,2,28,1,19,,1,8,1,,,,,,1,22,8,,1,1,4,18,,35,4,21,2,27,17,2,3,5,,20,3,,1,,10,,1,,17,1,4,1,9,6,5,3,,6,6,5,,1,,,6,,,,1,5,6,,,2,,,,,1,,,17,,,,,,,4,,,1
Goa,SOUTH GOA,15.11997635,74.12382292,,,2,9,,,1,1,5,,17,,,1,,,,,,,2,18,6,,1,1,7,6,,35,3,19,,32,9,5,1,1,1,14,3,1,2,,6,2,,,7,,7,,2,3,14,8,,4,1,11,,1,,,1,,,,,,7,3,,1,,,,,,,,22,,,,,,,2,,,2
Gujarat,AHMADABAD,22.84550736,72.23671688,63,,,,14,14,29,175,185,8,37,19,459,107,226,,4,8,1,40,54,189,172,,,21,467,309,1,272,83,446,30,250,212,132,506,183,,528,21,,1,1,22,1,1,,85,8,36,15,20,52,607,489,13,22,104,1,,1,,6,68,23,,2,8,60,8,33,,4,15,2,1,7,1,8,1,171,7,16,1,,,2,4,1,,3
Gujarat,AMRELI,21.44694081,71.28724787,73,3,,1,7,5,2,1,6,1,,,7,1,,,,,,,,,,,1,2,,1,,1,,,,5,8,,,,,1,,,,,,,,,,,,,,,,1,,,,1,,,,,,2,,,,,,1,,5,2,,,,,,,2,,5,,,,,,,,
Gujarat,ANAND,22.33591983,72.61476812,5,1,,,8,3,4,49,31,15,2,88,3,4,,,,,,14,44,9,4,,,2,50,47,,19,4,20,2,71,2,1,21,29,,45,4,,,,1,,2,,22,,5,,,2,42,42,,,1,,,1,,,2,,,,,1,2,,,1,3,,,,,,,17,4,13,,,,,1,,,
Gujarat,Arvalli,23.5258209,73.37052086,,,,,10,,2,3,2,2,,,,,,,,,,,,1,,,,,2,1,,,,1,,4,,,,2,,,,,,,,,,,,,,,,2,,2,,,,,,,,,,,,,,,,,,3,,,,,,1,,,,,,,,,,,,
Gujarat,BANAS KANTHA,24.35108181,71.76258604,1,,,,,18,4,5,6,1,,,,,1,,,,,,1,3,,,,,,,,3,,2,,29,5,,1,3,,,,,,,,,,,,1,,,,,4,1,,,,,,,,,,6,,,,,,,,6,2,,,,,,,7,1,23,,,,,,,,
Gujarat,BHARUCH,21.7992948,72.80462166,1,13,,,2,2,7,,32,3,5,,35,8,4,,,1,2,,11,32,5,,,14,471,337,2,138,20,83,12,80,4,12,3,67,,62,,,,,2,,,,12,1,3,2,,3,36,31,,,2,1,,,,,4,1,,,,1,1,2,1,1,12,3,,1,3,7,2,21,,1,,,,,,,,
Gujarat,BHAV NAGAR,21.51257235,71.85661675,41,9,,,86,4,3,1,36,1,3,7,,7,3,,,,,,3,4,7,,,9,44,14,3,12,8,10,,25,96,1,63,4,,38,1,,,,,,1,,1,,1,1,,,10,10,,,,6,,,,,,13,,,,1,1,1,,12,7,,,,,,172,7,1,37,,,,,,,,
Gujarat,Botad,22.22848502,71.66664309,41,,,,,4,1,,,,,,8,,,,1,,,,,1,,,,,,,,1,,3,,4,,,,,,,,,,,,,,,,,,,,,4,,,,1,,,,,,,,,,,,,,,1,1,,,,,,,,,,,,,,,,,
Gujarat,Chhota Udepur,22.29105686,73.93700661,23,,,,1,,1,,,,1,,,,,,,,,1,,,,,,,,,,,,1,,108,,,,,,,,,,,,,,,,,,,,,,,,,,,,,,,,,,,,,,,,,,,,,,,,1,,,,,,,,,,
Gujarat,Devbhumi Dwarka,22.12766461,69.38241579,1,2,,1,,4,,,,,7,,,1,,,,,,,,,,,1,1,1,,,,,,,9,,1,,,,,,,,,,,,,,,,,,,,1,,,,,,,,,1,,,,,,,,,3,,,,,,,,3,,,,,,,,,,
Gujarat,DOHAD,22.86497268,74.12467721,,,,,,,5,47,12,,,,,,,,,,,,,,,,,,,1,,,1,6,,3,,,2,1,,2,,,,,,,,,,,,,,,,,,,,,,,,,5,,,,,,,,,,1,,,,,,,1,,,,,,,,,,
Gujarat,GANDHINAGAR,23.21668944,72.66241547,8,,,,21,21,15,17,45,1,10,1,65,14,4,,,,,11,37,85,17,,,3,98,67,2,93,9,198,5,150,96,34,67,43,,78,32,,1,,13,,,,13,3,16,1,2,8,77,69,,,5,,,,,1,9,,,,1,11,3,10,,1,4,,,,,3,1,29,,21,1,,,,,,,
Gujarat,Gir Somnath,20.88303204,70.76459389,4,1,,84,9,,2,,2,,4,,,,,,,,,,,7,,,,,1,,1,1,,,,5,,,,,,,,,,,,,,,,,,,,,,1,,,,,,,,,,,,,,,,,,,3,,,,,,,3,,1,,,,,,,,
Gujarat,JAMNAGAR,22.22716588,70.14523172,26,8,,6,,16,2,,15,,4,1,8,3,,,,,,,2,4,1,,3,4,14,,,3,3,10,2,18,4,191,16,2,,133,,,1,,1,,,,2,13,4,1,1,10,6,20,,1,1,,,,,12,,1,,,,1,4,4,,3,4,,,,1,1,2,16,,12,,,,,,,,
Gujarat,JUNAGADH,21.35810158,70.52683535,36,,,7,2,29,5,7,13,2,2,,1,1,,,,,,,,,2,,,,5,5,,,,9,,14,,1,5,1,,2,,,,,,,,,,,1,,,,3,2,,,,,,,,5,4,1,,,,,,1,,1,,,1,,,,,5,,3,,,,,,,,
Gujarat,KACHCHH,23.73936781,69.85973519,12,15,,,,25,2,19,30,2,,2,4,9,12,,2,,1,60,91,19,2,,12,4,20,40,,6,3,49,3,53,24,5,18,7,,18,2,1,,,,,,,1,,3,,,,2,1,1,1,,,2,,,1,4,,,1,,1,,1,,9,1,,,,,1,,15,,13,,,,,,,,
Gujarat,KHEDA,22.92913996,72.99329146,3,,,,7,11,5,18,29,4,4,14,21,5,2,,,,,27,44,23,3,,1,3,25,26,,16,2,44,4,66,11,8,10,9,1,21,1,,,,,,,,3,1,5,,,1,14,7,,2,,,,,,,3,,,,,2,,1,,,2,,,,,,,3,2,13,,,,,,,,
Gujarat,MAHESANA,23.60495516,72.42615241,132,,,,6,106,24,18,28,6,2,1,30,2,1,,,,,1,31,64,2,,,3,39,39,,54,10,82,9,84,75,12,13,7,,44,4,,,,2,,,,18,,5,1,1,1,27,54,,3,23,,,,,,4,1,,,,3,1,4,,,,,,,2,,,25,1,8,,,,,,,,
Gujarat,Mahisagar,23.17678596,73.5597507,,,,,,,4,1,,1,,,,,,,,,,,,,,,,,,2,,1,,,,8,,1,,,,1,,,,,,,,,,,,,,,,,,,,,,,,,,,,,,,,1,,,,,,,,,,1,,,,,,,,,,
Gujarat,Morbi,22.87025472,70.90711816,98,3,,,1,29,4,4,28,1,3,,23,16,2,,,6,,,45,191,3,,2,5,27,25,2,14,7,198,48,1104,8,17,11,6,,29,2,,,,30,,,23,4,,2,1,,1,13,22,,,,,,,,,2,,,,1,,2,2,,5,1,,,,,,1,11,4,3,,,,,,,,
Gujarat,NARMADA,21.87794257,73.55906811,,,,,,,,,2,1,,,1,,,,,,,,,,,,,,,,,4,,,,1,,,,,,,,,,,,,,,,,,,,,,,,,,,,,,,,,,,,,,,,,,,,,,,,1,,,,,,,,,,
Gujarat,NAVSARI,20.77218277,73.13478746,,,,1,7,,1,49,21,2,6,,7,3,16,,1,,,2,18,14,1,,,1,12,18,,16,,21,1,53,5,,8,10,,14,1,,,1,2,,,,1,,,1,,2,35,35,,1,2,1,,,,,1,18,,,,1,1,2,,,1,,,,,,,15,2,1,,,,,,,,
Gujarat,PANCH MAHALS,22.80616035,73.55803407,,,,,,,6,12,6,1,3,,3,6,1,,,5,,,4,12,,,,2,25,36,,16,8,136,3,65,11,2,10,24,,22,,,,,,,,,5,1,12,1,1,3,10,17,2,3,26,,,,,8,3,,,,,,,3,,,2,,,,,1,,9,1,,,,,,,,,
Gujarat,PATAN,23.71956729,71.85644105,24,,,,,19,3,15,11,,,,,,,,,,,,,2,,,,,1,1,,26,,1,1,7,1,,1,1,,1,,,,,,,,,,,,,,,,1,,1,,,,,,,,,,,,2,,,,13,,,,,,,,1,,,,,,,,,,
Gujarat,PORBANDAR,21.6809916,69.81140139,,1,,20,,4,4,,2,1,,,,5,,,,,,,,1,,,,2,1,1,,,,1,,17,,1,,1,,,,,,,,,,,,,,,,,1,,,,,,,,,,,,,,,,,,,3,,,,,,,,2,,,,,,,,,,
Gujarat,RAJKOT,22.11505815,70.71649811,116,,,1,2,84,14,37,109,1,13,,201,33,3,,,3,1,,21,100,22,,1,3,41,72,,29,14,276,6,123,71,75,358,32,,514,1,,,,12,,,,11,5,34,1,13,12,269,149,2,1,68,,1,,,10,13,17,,,1,12,3,4,,4,15,,,,,2,1,55,11,32,1,,,,1,,,
Gujarat,SABAR KANTHA,23.85392857,72.99226153,21,,,,14,,4,10,5,1,,1,7,4,1,,,,,,14,16,1,,,,11,3,,14,,21,2,31,20,3,8,4,,10,,,,,,,,,3,1,2,,1,,1,,,,,,,,,,2,,,,,1,,1,,2,1,,,,,,,4,,4,,,,,1,,,
Gujarat,SURAT,21.26609098,72.99312387,1,2,,3,8,2,10,50,100,3,29,1,1309,516,104,,,2,8,1,59,114,39,,,9,91,77,50,41,29,108,16,160,14,34,8,31,,78,2,,,,1,,,,11,3,7,1,3,9,42,129,,5,,1,,1,,,17,425,,,,9,5,7,1,2,21,,6,6,1,4,2,107,15,2,9,,,,,,,
Gujarat,SURENDRANAGAR,22.77925403,71.66732976,58,1,,,1,2,4,1,30,1,5,,10,3,3,,,,,,13,20,1,,,1,25,9,,21,8,34,1,330,15,6,5,4,,20,,,,,,,,1,,,3,,,,27,27,,,21,,,,,3,2,,,,,,,,,17,5,,,,,,,7,,2,,,,,,,,
Gujarat,Tapi,21.28174662,73.60652093,,,,,,1,,1,5,,,,,,,,,,,1,1,3,1,,,,1,,,3,,1,,4,,1,1,,,1,,,,,,,,,,,,,,,,,,,,,,,,,3,,,,,,,,,,,,,,,,,1,,1,,,,,,,,
Gujarat,THE DANGS,20.82826119,73.70053576,,,,,,,1,,,,,,,,,,,,,,,,,,,,,,,,,,,,,,,,,,,,,,,,,,,,,,,,,,,,,,,,,,,,,,,,,,,,,,,,,,,,,,,,,,,,,
Gujarat,VADODARA,22.21247905,73.18147019,12,,,,10,4,6,41,68,9,25,9,16,13,,,,,,20,40,107,29,,1,22,199,150,1,165,32,257,35,138,42,35,61,177,,402,30,,1,,21,2,3,,195,1,32,7,3,42,221,161,1,3,13,1,11,1,,4,17,1,,3,2,30,10,11,,,9,2,1,1,,2,1,62,6,5,,,,1,,,,1
Gujarat,VALSAD,20.49551468,73.13478746,,1,,,10,2,3,17,46,2,14,,147,99,209,,3,6,6,7,34,333,32,,,14,214,175,2,80,53,362,30,42,35,67,34,103,,164,8,,1,3,7,2,,,29,4,22,10,5,21,94,76,,1,7,,,,,1,13,13,,1,7,52,83,6,1,,2,3,,1,,2,5,27,1,1,,,,1,2,,,
Haryana,AMBALA,30.29117098,76.96395755,1,,,,6,6,4,47,2,5,7,3,6,,,,,1,7,,1,4,,,,,5,9,,12,1,10,6,44,,,12,4,,4,,,,,8,,9,1,3,1,,2,2,4,6,17,,1,,,,,,1,3,,,1,,5,12,2,,,,,,,,1,,17,1,2,,,,,,,,
Haryana,BHIWANI,28.76147044,75.80758965,3,,,,,9,1,6,,,5,,2,7,,,,,,3,,1,,,,,1,1,2,2,1,13,,50,8,,,,,1,,,,,,,,3,,,,,,,,4,,,,,,,,,1,,,,,1,,,,,,,,,,,,3,,,,,,,,,,
Haryana,FARIDABAD,28.41071394,77.33278061,,,,,,,4,3,5,,2,2,28,18,87,,,10,11,,8,28,10,,,3,16,14,,7,33,23,2,66,44,8,44,39,1,103,3,2,,,1,,,,26,1,9,2,14,14,73,84,3,8,222,,1,1,,10,9,,,,,15,1,4,1,,1,,1,,,,,9,,1,,,,,2,,,
Haryana,FATEHABAD,29.65116215,75.62080365,23,,,,1,1,5,141,3,,5,,1,,,,,,2,5,2,4,,,,,1,,,,1,,,64,,1,,,,,,,,,,,,,,,,,,,,,,,,,,,,,,,,,,,,,,,,,,,,,2,1,,9,,,,,,,,
Haryana,GURGAON,28.438805,76.988002,2,,4,,2,,8,1,51,,7,1,23,73,568,,5,57,14,,2,59,45,,,3,22,24,,29,73,57,3,27,5,5,13,66,,148,16,3,2,4,15,1,,,38,8,14,6,3,136,54,36,5,14,403,2,,,,42,69,6,,2,1,15,20,1,1,,4,,,,,,,39,1,2,,,,,,1,,1
Haryana,HISAR,29.30684484,75.80758968,23,,,1,,14,,10,3,3,3,,13,,,,,,1,2,4,3,1,,1,,4,3,,11,3,8,,235,29,,13,,,6,,,,,1,,,,2,1,1,,,2,1,1,2,,,,,,,,1,,,,,,,,,,,,,,,,2,8,1,1,1,,,,,,,
Haryana,JHAJJAR,28.62417787,76.6874649,,,,,,1,1,,12,1,4,1,26,47,8,,2,16,325,,25,48,17,,,13,45,79,2,28,33,132,3,20,18,11,11,12,,70,1,,1,1,1,,,,18,4,3,5,4,10,82,35,5,4,55,1,2,,,8,11,,,,2,7,13,3,,1,1,,,,,5,1,4,,1,,,,,,,,
Haryana,JIND,29.36665413,76.36372333,2,,,,,,3,17,2,5,,,,,,,,,,,,6,,,,3,1,3,,5,,,,70,,,,,,1,,,,,,,,,,1,,,,,,5,,,,,,,,,1,,,,,,,,,,,,,,,,,1,,2,,,,,,,,
Haryana,KAITHAL,29.73149466,76.36269338,1,,,,,6,,55,1,,,,,,,,,,1,,3,,,,,,,,,,,2,,29,,1,,,,,,,,,,,,,,,,,,,,5,,,,,,,,,,,,,,,,,,,,,,,,,,3,,1,,,,,,,,
Haryana,KARNAL,29.78822429,76.91854788,,,,,1,14,4,160,13,7,3,,16,53,2,,,1,10,6,2,9,3,,,6,3,15,,23,6,7,,37,,1,1,2,,2,,,,,1,,,,3,,1,,,,6,37,3,,,,,,,,2,,,,,,,1,,,,,,,,2,,22,,1,1,,,,,,,
Haryana,KURUKSHETRA,30.00088846,76.77912542,,,,,,3,3,71,1,,1,,,,,,,,,1,,2,,,,,1,1,,1,,2,3,40,,1,,,,,,,,,,,,,,,,,,,,,,,1,,,,,,,,,,,,,,,,,,,,,,,3,,10,,,,,,,,
Haryana,MAHENDRAGARH,28.20996541,76.22404473,1,,,,,,,,,,,,,,,,,,,,,,,,,,,,,,,,,15,,,,,,,,,,,,,,,,,,,,,,,,,,,,,,,,,,,,,,,,1,,,,,,,,,,,,,,,,,,
Haryana,MEWAT,28.01703208,77.05747114,,,1,,,,2,1,2,,1,,2,,,,,,,,1,3,,,,,,1,,1,2,,,,,2,,1,,,,,,,,,,,,,,,,,3,,,,8,,,,,,,,,,1,,,,,,,,,,,,,,,,,,,,,,,
Haryana,PALWAL,28.04274128,77.33210962,,,,,2,1,1,,,,1,,4,1,1,,,1,,,1,7,1,,,1,,3,,,3,1,,2,5,5,3,1,,8,,,,,,,,,4,,2,1,,3,9,2,4,3,10,,2,,,1,1,,,,,1,,,,,1,,,,,,1,,,,,,,,,,,
Haryana,PANCHKULA,30.66232429,77.05575465,,,,,1,,,2,2,,2,,2,2,,,,,,3,2,10,,,,,1,3,,13,,2,1,11,3,,1,1,,10,2,,,,2,,,,7,,1,,1,4,16,24,,1,21,,6,,,,3,,,,,2,,1,,,,,,,,,,9,,,1,,,,,,,
Haryana,PANIPAT,29.38161495,76.96430083,,,,,4,1,,8,4,,2,2,312,483,9,,,,,1,2,8,6,,,,7,7,1,3,2,7,,55,1,1,2,2,,19,,,,,,,,,,,,,,,2,23,,,,,,,,1,1,,,,,1,1,,,,1,,,,,,1,11,1,,,,,,,,,
Haryana,REWARI,28.28764366,76.54744469,,,1,,1,1,2,1,2,,4,,1,11,1,,,,,,,18,1,,,1,12,13,1,4,6,45,1,30,7,16,4,6,,50,2,1,2,3,,,,,3,7,5,5,2,3,32,17,3,6,99,,1,,,16,2,,,,,4,3,4,,1,1,,,,,,1,9,1,2,,,,,,,,
Haryana,ROHTAK,28.87835114,76.50153904,,,,,,1,3,1,4,1,6,5,1,6,,,,,1,,36,2,4,,2,11,9,22,3,3,,12,1,2,14,7,1,12,,101,,,,,,,,,,,2,,,1,2,3,,,30,,,,,7,1,,,,,1,,,,,,,,,,1,,6,1,1,1,,,,1,,,
Haryana,SIRSA,29.56641433,74.87409934,44,,,,2,1,1,25,4,,10,,,7,,,,,,5,1,2,,,,2,3,,,1,,3,,170,,1,1,,,2,,,,,,,,,1,1,,,4,1,1,1,,,,,,,,,,,,,,,,,,,1,,,,,,1,9,,2,,,,,,,,
Haryana,SONIPAT,29.05798237,76.91820452,1,,1,,15,2,9,49,58,3,15,17,46,71,22,,2,5,22,1,27,56,22,,,3,19,39,4,27,45,82,7,84,14,12,4,17,,110,2,,7,1,4,,,,19,4,18,12,26,3,20,36,3,,37,,3,,1,3,1,,,1,4,10,2,3,,,,,,,,2,,3,,44,1,,,,,,,1
Haryana,YAMUNA NAGAR,30.1877017,77.28648277,,,,,,,,30,2,1,,,,,,,,,,28,199,10,,,,,3,2,,5,,3,,97,10,32,2,6,,159,,,,,,,,,2,2,3,,,2,6,13,,,3,,,,,,,,,,,1,1,,1,,,,,,,,,5,,,,,,,,,,
Himachal Pradesh,BILASPUR,22.079467,82.140793,,,,,,,,,,,,,,,,,,,,,,,,,,,2,,,1,1,,,2,,,,,,,,,,,,,,,,,,,,,,,,,1,,,,,,1,,,,,,,,,,,,,,,,,,,,,,,,,,,
Himachal Pradesh,CHAMBA,32.76251863,76.17871222,,,,,,,,,,,,,1,,,,1,,,,,,,,,,,,,,,,,,,,,,,,,,,,,,,,,,,,,,,,,,,,,,,,,,,,,,,,,20,,,,,,,,,,,,,,,,,,
Himachal Pradesh,Dharamshala,32.216559,76.321053,,,,,,,,,,,,,,,,,,,,,,,,,,,,,,,,,,,,,,,,,,,,,,,,,,,,,,,,,,,,,,,,,,,,,,,,,,1,,,,,,,,,,,,,,,,,,
Himachal Pradesh,HAMIRPUR,31.689095,76.520311,,,,,,,,,,,1,,,,,,,,,1,,1,,,,,,,,,,,,,,1,,,,,,,,,,,,,,,,,,,,,,,,,,,,,1,,,,,,,,,,,,,,,,,3,,,,,,,,,,
Himachal Pradesh,KANGRA,32.0726444,76.36372347,,,,,1,3,,3,12,,5,,2,,,,,,1,,2,4,3,,,,,1,,17,6,,2,2,18,,1,1,1,3,,,,,,,,,1,1,5,,1,,,,,,,,1,,,,,,,,,,1,,,20,,,,,,,,8,1,,1,,,,,,,
Himachal Pradesh,KINNAUR,31.65706834,78.47484612,,,,,,,,,,,,,,,,,,,,,,,,,,,,,,,,,,,,,,,,,,,,,,,,,,,,,,,,,,,,,,,,,,,,,,,,,,11,,,,,,,,,,,,,,,,,,
Himachal Pradesh,KULU,31.829289,77.47122212,,,,,2,,,5,,,3,,4,,,,,,,,,,,,,,,,,,,,,,,,,,,,,,,,,,,,,,,,,,,,,,,,,,,,,,,,,,,,,24,,,,,,,,1,,1,,,,,,,,
Himachal Pradesh,MANDI,31.59531544,76.91717467,,,,,2,,1,5,,,2,,,,,,,,,,,,,,,,1,2,,1,1,,,1,,,,,3,,,,,,,,,,,,,,,,,,,,,,,,,,2,,,,,,,,,1,1,,,,,,,5,,,,,,,,,,
Himachal Pradesh,SHIMLA,31.1289856,77.65360742,,,,,6,,1,1,,,1,,,,,,,,,1,,1,1,,,,,1,,,,1,,,,,,,,,,,,,,,,,1,,,,,,,,,,,,,,,,,,,,,,,,,19,,,,,,,,4,,1,,,,,,,,
Himachal Pradesh,SIRMAUR,30.56784507,77.47087874,,,,,2,,,4,8,2,3,1,2,22,,,,,7,,4,45,1,,,,9,26,1,119,2,31,14,35,23,15,7,13,,10,,,2,,,,,,,3,9,3,31,1,4,3,,,2,,5,,,2,4,,,,,,5,,,3,1,,,,,,,1,,,1,,,,1,,,
Himachal Pradesh,SOLAN,31.09562457,76.87243434,,,,,6,3,2,10,37,1,18,2,37,8,3,,1,,14,,2,178,24,,,5,15,127,,352,22,161,2,7,22,21,8,24,3,40,39,13,11,9,19,1,,,36,26,27,14,116,33,30,24,1,1,62,,3,,,7,6,,1,,,7,30,,,,1,,,,,1,,8,,,,,,,5,,,
Himachal Pradesh,UNA,31.5653896,76.22541819,,,,,7,1,1,5,5,1,7,1,1,8,1,,,,3,4,,11,1,,,2,5,8,3,34,5,14,2,9,3,4,2,4,,9,1,,,,1,,1,,2,16,2,2,7,,4,3,,2,4,,1,,,,1,,,,,,4,,,,,,,,,,,3,,1,,,,,,,,
Jammu and Kashmir,ANANTANAG,33.71036992,75.24721451,,,,,,,,1,3,,1,,,,,,,,,,2,,,,,,,,,,,,,1,,,,,,,,,,,,,,,,,,,,,,,,,,,,,,,,,,1,,,,,,,,,,,,,,,,1,,,,,,,,
Jammu and Kashmir,BADGAM,33.9396697,74.64003826,,,,,1,,2,4,2,,1,,2,,,,,,,,7,,,,,,,,,,,2,1,3,1,,,1,,2,,,,,,,,,3,,,,1,1,,,,,,,,,,,,,,,,,,,,,,,,,,,,1,,,,,,,,,,
Jammu and Kashmir,BARAMULA,34.15263734,74.26453465,,,,,1,,,1,1,,2,,,,,,,,,,,1,,,,,,,,,,,,,,,,,,,,,,,,,,,,,,,,,,,,,,,,,,,,,,,,,,,,,,,,,,,,1,,,,,,,,,,
Jammu and Kashmir,DODA,33.1018794,75.66666437,,,,,,,,,,,,,,,,,,,,,,,,,,,,2,,,,,,,,,,,,,,,,,,,,,,,,,,,,,,,,,,,,,1,,,,,,,,,,,,,,,,,,,,,,,,,,,
Jammu and Kashmir,JAMMU,32.93988002,74.68653319,,,,,3,5,11,23,16,1,10,,,,3,,,,3,1,6,18,3,,,1,6,15,,6,3,24,,9,11,3,,14,15,11,,,,1,,,,,5,9,5,,1,1,1,,,1,,,,,5,,5,,,1,,,1,2,,,,,,,,,,12,,1,,,,,,,,
Jammu and Kashmir,KATHUA,32.52174584,75.62149043,,,,,,1,3,4,4,1,1,3,4,1,,,,,,,2,13,,,,,1,22,,6,2,34,1,7,6,14,,2,1,4,,,,,,,,,2,,1,1,1,,,,,,,,,,,,,,,4,,,3,,,,,,,,,,,2,,,,,,,,,,
Jammu and Kashmir,PULWAMA,33.98840902,75.01472079,,,1,,2,,3,6,1,,1,,,1,,,,1,,1,10,1,,,,2,1,,,,,3,,6,1,,,,,1,,,,,,,,,,,,,,,,,,,,,,,,,1,,,,,,2,,,,,,,,,,,,,5,,,,,,,,
Jammu and Kashmir,RAJAURI,33.24156715,74.3114729,,,,,,,,,,,,,,,,,,,,,,,,,,,,,,,,,,1,,,,,,,,,,,,,,,,,,,,,,,,,,,,,,,,,,,,,,,,,,,,,,,,1,,,,,,,,,,
Jammu and Kashmir,Reasi,33.26439271,74.8283434,,,,,1,,,,,,,,,,,,,,,,,,,,,,,,,,,,,,,,,,,,,,,,,,,,,,,,,,,,,,,,,,,,,,,,,,,,,,,,,,,,,,,,,,,,,,,
Jammu and Kashmir,Samba,32.59434243,75.10817152,,,,,2,9,1,12,23,7,14,4,2,4,7,,,,2,,2,36,2,,,3,13,51,,26,1,54,2,23,24,15,5,23,,14,,,,1,,,,,14,,2,1,1,3,1,2,,,1,,,,,,4,1,,,,1,6,,,,,,,,,,,1,,,,,,,,,,1
Jammu and Kashmir,SRINAGAR,34.11301562,74.8042589,,,,,2,,1,2,9,,2,,10,2,1,,,,,1,7,2,3,,,,3,,,1,1,8,1,7,,,,1,,1,,,1,,,,,,4,,,,2,1,,,,,,,,,,,4,,,,,,1,,,1,,,,,,,,7,,,,,,,,,,
Jammu and Kashmir,UDHAMPUR,32.88144586,75.29319072,,,,,,,,3,,,1,,,,,,,,,,,,,,,,,3,,,,,,6,,,,,,,,,,,,,,,,1,,,,,,,,,,,,,,,1,,,,,,,,,,,,,,,,,,,,,,,,,,,
Jharkhand,BOKARO,23.66790703,85.97131659,,,,,,,,2,2,,2,,,,2,,,,,1,1,2,,,13,3,3,6,,,1,1,,26,31,,14,3,,8,,,,,,,,,,,,,,,,1,,,,,,,,,,,,,,,,1,1,,2,,,,,,,9,,1,,,,,,,,
Jharkhand,CHATRA,24.15793643,84.85678781,,,,,,,,1,,,,,,,,,,,,,,,,,,,,1,,,,,,2,,,,,,,,,,,,,,,,,,,,,,,,,,,,,,,,,,,,,,,,,,,,,,,,,,,,,,,,,,
Jharkhand,DEOGHAR,24.39818778,86.66041627,,,,,,1,1,18,,,3,2,,,1,,,,,,1,2,1,,,,1,3,,2,,2,1,15,1,,,1,,1,,,,,,,,,,,,,,,2,,,,,,,,,,,,,,,,,,,,,,,,,,,3,,1,,,,,,,,
Jharkhand,DHANBAD,23.82486722,86.49930587,,,,,2,2,2,19,4,1,4,,,,,,,,1,2,,,4,,247,5,2,5,,,1,5,,190,23,,14,2,,6,,,,,,,,,,,1,,,1,1,5,,,,,,,,,2,,,,,,1,4,,,,,,,,,,29,5,,1,,,,,,,
Jharkhand,DUMKA,24.4118318,87.30229447,,,,,,,,17,1,,,,,,,,,,,,1,,5,,,,,1,,,,,,3,1,,,,,,,,,,,,,,1,,,,,,,,,,,,,,,,1,,,,,,,,,,,,,,,,,2,,,,,,,,,,
Jharkhand,GARHWA,24.113761,83.67773073,,,,,,,,1,,,,,,,,,,,,,,,,,,1,,1,,,,,,3,,,,,,,,,,,,,,,,,,,,,,,,,,,,,,,,,,,,,,,,,,,,,,,,,,,,,,,,,,
Jharkhand,GIRIDIH,24.29101059,86.09475578,,,,,,,1,5,,,1,,,,,,,,,,,3,,,22,1,3,,1,,,3,,35,44,1,,,,6,1,,,,,,,,,,,,,,,,,,,,,,,,,,,,,,,,,,,,,,,,,2,1,,,,,,,,,
Jharkhand,GODDA,24.79190223,87.30298113,,,,,,,,2,,,,,,,,,,,,3,,,,,,,,1,,,,1,,2,,,,1,,,,,,,,,,,,,,,,,,,,,,,,,,,,,,,,,,,,,,,,,,,,,,,,,,,,,,
Jharkhand,GUMLA,23.19892362,84.52324344,,,,,,,,2,,,,,,,,,,,,,,,,,,,,,,,,,,16,,,,,,,,,,,,,,,,,,,,,,,,,,,,,,,,,,,,,,,,,,,,,,,,1,,,,,,,,,,
Jharkhand,HAZARIBAG,23.98466863,85.35427296,,,,,,,,13,1,3,1,1,,,1,,,,,,,,,,15,2,,1,,,1,3,,54,9,1,2,,,,,,,,,,,,,,,,,,,,,,,,,,,,1,,,,,,,1,,,,,,,,,,8,1,5,,,,,,,,
Jharkhand,JAMTARA,23.9755935,86.94271803,,,,,,1,,6,1,,,,,,,,,,,,,,,,9,,,1,,,,,,2,1,,,,,,,,,,,,,,,,,,,,,,,,,,,,,,1,,,,,,,,,,,,,,,,,1,,,,,,,,,,
Jharkhand,KHUNTI,23.0854232,85.27741527,,,,,,,,1,,,,,,,,,,,,,,,,,,,,,,,,,,3,,,,,,,,,,,,,,,,,,,,,,,,,,,,,,,,,,,,,,,,,,,,,,,,1,,,,,,,,,,
Jharkhand,KODARMA,24.51443162,85.64416827,,,,,,,,3,,,,,,,,,,,,,,,,,,,,1,,,,1,,23,5,,3,,,1,,,,,,,,,,,,,,,,,,,,,,,,,,,,,,,,,,,,,,,,,,,1,1,,,,,,,,
Jharkhand,LATEHAR,23.76027068,84.35454282,,,,,,,,,,,,,,,,,,,,,,,,,,,,,,,,,,1,,,,,,,,,,,,,,,,,,,,,,,,,,,,,,,,,,,,,,,,,,,,,,,,,,,,,,,,,,
Jharkhand,LOHARDAGA,23.44128871,84.64722034,,,,,,,,4,,,,,,,1,,,,,,,,,,,,,,,,,,,15,,,,,,,,,,,,,,,,,,,,,,,,,,,,,,,,,,,,,,,,,,,,,,,,,,,,,,,,,,
Jharkhand,PAKAUR,24.55959073,87.65913759,,,,,,,,2,,,,5,,,,,,,,,,,,,,,,,,,,,,,,,,,,,,,,,,,,,,,,,,,,1,,,,,,,,,,,,,,,,,,,,,,,,,,,,,,,,,,,,
Jharkhand,PALAMU,24.13422826,84.18570611,,,,,,,1,3,,,1,,,,,,,,,,,,,,,3,1,,,,,,,76,,,,,,,,,,,,,,,,,,,,,,,,,,,,,,,,,,,,,,,,,,,,,,,,4,,1,,,,,,,,
Jharkhand,RAMGARH,23.65832106,85.56017462,,,,,,,1,7,,,2,,,,1,,,,,,,,,,22,,6,2,,,,1,,88,37,1,1,,,1,,,,,,,,,,,,,,,,,,,,,,,,,,,,,,,,,,1,1,,,,1,,1,1,,2,,,,,,,,
Jharkhand,RANCHI,23.41571846,85.35461626,,,,,1,1,5,33,19,4,14,,3,1,16,1,,,1,11,1,6,11,,,2,1,14,,1,2,16,1,200,7,3,3,6,1,5,2,,,,,,,,1,,1,,,,1,4,,6,,,,,,,1,,,,,1,,1,,,,1,,,,1,,50,9,4,,,,,1,,,
Jharkhand,SAHIBGANJ,25.03381889,87.65845097,,,,,,,1,,,,1,2,,,,,,,,,,,,,,,,,,,,,,165,,,,,,,,,,,,,,,,,,,,,,,,,,,,,,,,,,,,,,,,,,,,,,,,2,,,,,,,,,,
Jharkhand,SARAIKELA KHARESWAN,22.86243208,86.01318183,,,,,1,,4,3,,1,4,,,1,,,,,,,,3,1,,2,5,7,1,,1,16,15,2,32,77,8,22,19,,51,1,,,,1,,,,1,,3,,,,13,16,1,12,110,,1,,,1,,,,,,,,1,,1,5,,,,,2,,20,1,,,,,,,,,
Jharkhand,SIMDEGA,22.63293149,84.69008738,,,,,,,,1,,,,,,,,,,,,,,,,,,,,,,,,,,3,,,,,,,,,,,,,,,,,,,,,,,,,,,,,,,,,,,,,,,,,,,,,,,,,,,,,,,,,,
Jharkhand,SINGHBHUM(E),22.457403,85.553371,,,,,1,,,30,2,,3,,,,,,,,,,1,3,2,,,1,5,13,,,4,1,,56,33,9,4,4,,21,,,,,,,,,1,,,,,,5,3,13,3,27,,,,,1,,,,,,,,3,,2,,,1,4,,,,22,,1,,,,,,,,
Jharkhand,SINGHBHUM(W),22.441562,85.425391,,,,,,,,1,,,,9,,,,,,,,,,,,,,,,2,,,,,,19,4,,,,,1,,,,,,,,,,,,,,,,,,,,,,,,,,,,,,,,,,,,,,,,,,,1,,,,,,,,,
Karnataka,BAGALKOT,16.13817742,75.62012075,1,,,,,,2,1,11,,4,,3,1,,,,,,,,1,2,,,,4,1,,,,1,,8,,,,,,1,,,,,,,,,,,,,,,,,,,,,,,,1,,,,,,1,1,,,3,,,,,,,,4,,,1,,,,,,,
Karnataka,BANGALORE,12.923007,77.59103,2,,2,2,22,1,26,36,251,19,35,5,75,98,750,1,20,34,50,3,65,252,275,,,5,59,217,3,126,60,396,36,250,64,45,79,127,2,1036,171,10,31,1,62,5,1,3,288,37,70,32,64,74,431,388,11,25,223,1,4,45,,22,162,28,,3,6,45,50,10,3,,9,1,4,,,4,4,342,68,6,5,,,2,13,6,,35
Karnataka,BANGALORE RURAL,13.32588423,77.47002411,7,,4,,4,,4,17,29,17,13,1,13,7,52,,,6,19,,27,27,12,,1,6,20,28,3,17,4,71,6,65,9,10,26,24,,99,18,3,,,4,,,,48,8,10,2,7,8,53,70,6,6,28,,4,16,,2,18,,,,,11,4,4,,,,,,,1,8,3,23,2,8,1,,,,5,,,1
Karnataka,BELGAUM,15.871981,74.507749,21,,2,,9,7,3,9,40,3,3,28,11,2,3,,1,1,,,1,5,7,,,2,23,10,,5,17,3,,24,8,4,110,13,,76,,,,,1,1,,,9,,,,,2,90,40,,2,28,,1,8,,3,1,2,,,2,,3,1,,12,,,,,,,1,32,,2,2,,,1,1,,,1
Karnataka,BELLARY,15.09781621,76.54865012,53,,,,10,7,5,124,7,,1,,5,,11,,,,,1,,1,1,,3,1,8,9,,3,,6,1,13,47,1,3,9,2,1,,,,,,,,,1,1,1,,,,,,,,,,,,,,,,,,,,,1,,11,2,,,,,,,19,,13,1,,,,,,,
Karnataka,BIDAR,17.91332971,77.52007816,,,,,,,1,20,4,1,2,2,,,,,,,,,,4,3,,1,5,5,4,,34,3,,1,4,1,1,1,3,,2,,,,,,,,,,,1,,,,,,,,,,,,,,,,,,,,,,,12,1,,,,,,6,1,,,,,,,,,,
Karnataka,BIJAPUR,18.797687,80.813746,12,,,,1,4,1,5,11,,1,,1,1,3,,,,,,,,,,,,3,2,,,1,,,9,,,,,,,,,,,,,,,,,,,,,,,,,,,,,,,,,,,,,,,,18,,,,,,,,11,,,1,,,,,,,
Karnataka,CHAMARAJANAGAR,12.05616648,77.28665813,,,,,,,3,,4,,1,,,1,,,,,,,,,,,,,,2,,,,2,1,7,,,,,,,,,,,,,,,3,,,,,,,,,,,,,,,,,,,,,,,,,1,,,,,,,,1,,,,,,,,,,
Karnataka,CHIKKABALLAPUR,13.43816655,77.73118965,,,,,1,1,5,2,1,2,1,,4,1,10,,1,,,,1,1,1,,,1,2,6,,3,2,4,,16,1,1,3,3,,3,,,,1,,,,,,,,,,,1,2,,,,,,,,,2,,,,,2,,,,,,,,,1,1,,11,,1,,,,,1,,,
Karnataka,CHIKMAGALUR,13.40784314,75.62080738,,,,,1,,2,2,28,7,,,,,1,,,,,13,4,1,,,,,,1,,,,,,5,,,,,,,,,,,,,,,,,,,,,,,,,,,,,,,,,,,,,,,,,,,,,,,,8,,,,,,,,,,
Karnataka,CHITRADURGA,14.18513276,76.54847846,6,,,,,26,2,15,15,3,,,2,2,5,,,,1,,1,1,,,,2,,,,,,,,2,2,,,,,,,,,,,,,,,1,,,,,,,,,,,,,,,,,,,,,,,,10,1,,,,,,,10,,,1,,,,,,,
Karnataka,DAKSHINA KANNAD,12.84746023,75.24756135,,,3,24,6,13,7,10,142,6,20,11,,,6,,,,,20,81,10,25,,,15,24,18,,6,11,32,2,60,3,2,1,4,,23,,,,,2,,,,1,1,1,2,,1,3,16,,,10,1,,,,,8,1,,,,1,,1,,13,1,,,,3,1,2,91,5,5,,,,,,,1,3
Karnataka,DAVANAGERE,14.33442824,75.99259212,1,,,,1,2,3,63,3,,4,5,,,21,,,,,,,2,2,,,,4,1,,2,,1,,5,1,,8,3,,7,,,,,,,,,3,,1,,,,3,3,,,,,,,,,2,,,,,1,1,,,,,,,,,,,22,5,,,,,,,,,1
Karnataka,DHARWAR,15.36832588,75.06145661,42,,,,6,9,4,22,27,11,5,2,3,,3,,,,3,1,13,5,14,,1,5,13,9,,10,4,19,1,27,9,,10,22,,74,2,,,,3,,,,15,1,9,,1,10,77,32,1,4,29,,,,,,2,,,1,,1,7,1,1,,,,,,1,,2,44,1,1,6,,,,,,,
Karnataka,GADAG,15.40577321,75.61977742,19,,,,,2,3,2,1,2,,,10,,,,,,,,,1,,,,,2,1,,,,2,,2,,,,,,5,,,,,,,,,,,1,,,,,,,,,,,,,,,,,,,,,1,,2,,,,,,,,2,,1,1,,,,,,,
Karnataka,GULBARGA,17.338661,76.831009,7,,,,,,2,58,5,,1,,1,,,,,,,,,,4,,,1,10,1,,,1,2,,25,1,,1,,,3,,,,,,,,,,,,,,,,,,,,,,,,,,,,,,,,,,3,,,,,,,2,8,,2,1,,,,,,,
Karnataka,HASSAN,13.07826432,76.17837248,,,,,2,,10,,9,1,1,,1,6,7,,3,,,1,3,,,,,,2,2,,4,,1,,8,,,,,,,1,,,,,,,,,,,,,,2,,,,1,,,,,,,,,,,,,,,6,,,,,,,,18,,7,,,,,,,,
Karnataka,HAVERI,14.66384618,75.43326965,36,,1,,3,2,4,4,9,,,2,1,,12,,,,,,,1,,,,1,3,,1,1,,,,5,,,,,,,,,,,,,,,,,,,,,,,,,,,,,,,,,,,,,,,,2,,,,,,,,6,,13,,,,,,,,
Karnataka,KODAGU,12.34084503,75.80673511,,,,,1,,1,,37,,,,,,,,,,,,,,,,,,,,,,,,,2,,,,,,,,,,,,,,,,,,,,,,,,,,,,,,,,,,,,,,,,2,,,,,,,,15,,,,,,,,,,
Karnataka,KOLAR,13.18003685,78.20152229,,,1,,6,1,9,13,7,1,,,,1,12,,,1,1,,3,7,2,,,2,11,7,,9,6,19,3,51,3,11,5,8,1,64,,,2,1,2,,,,1,1,1,3,2,1,18,6,4,1,31,,,1,,7,7,,,,1,1,2,,,2,6,1,1,,,2,1,12,,,,,,,,,,1
Karnataka,KOPPAL,15.62437105,76.17820083,2,,,,,6,2,89,,,2,,,,,,,,,,,1,,,1,,8,,,,1,1,,15,20,,1,1,,1,,,,,,,,,,,,,,,,,,,,,,,,,,,,,3,,3,1,,8,,,,,,,,3,,,1,,,,,,,
Karnataka,MANDYA,12.5675755,76.73330735,,,1,,2,2,4,1,8,1,2,,,1,7,,2,1,4,,3,4,,,1,1,3,13,,1,2,4,1,7,1,1,3,,,5,1,,,,1,,,,6,2,,1,1,,,1,1,2,1,,,,,,,,,,,,,,,9,,,,,,,,12,2,,,,,,,,,
Karnataka,MYSORE,12.19066798,76.36338375,,,,,6,2,5,26,45,8,12,3,10,6,14,,2,,42,,29,34,11,,,7,20,56,,14,16,51,3,55,2,2,5,8,,43,29,,,3,3,1,,,13,2,16,1,,1,22,13,1,,41,,1,2,,7,19,2,,,,6,6,1,,2,1,,,,,,,56,4,6,,,,,3,,,1
Karnataka,RAICHUR,15.93027117,76.64075481,81,,,,,6,5,159,,,4,1,,,,,,,,1,,,1,,,,4,,,12,1,1,,9,1,,,,,1,,,,,,,,,1,,1,,,,,,,,,,,,,,1,,,,,,,,,5,2,,,,,,,6,,14,1,,,,,,,
Karnataka,RAMNAGARA,12.60326802,77.47071076,,,,,1,1,10,3,19,4,9,,3,7,10,,,2,,,5,21,6,,,2,6,17,1,12,3,39,3,35,2,4,2,12,,36,3,,1,,,,,,10,5,9,2,3,7,8,10,1,1,25,,,,,1,22,,,,1,4,1,2,,4,2,,1,,1,7,,10,,,,,,,3,,,2
Karnataka,SHIMOGA,13.960184,75.546857,,,1,,5,,4,17,10,3,2,,1,1,9,,,,,1,5,4,2,,,2,3,,,,,4,,2,1,,39,4,,9,,,,,1,,,,1,,,,,,2,7,1,1,14,,,,,,2,,,,,,,1,,1,2,,,,,,,36,1,,,,,,,,,
Karnataka,TUMKUR,13.3739655,76.64195642,,,,,30,7,13,72,35,6,6,5,5,7,18,,1,3,,,14,6,1,,1,3,13,20,,23,6,26,1,53,13,6,13,19,,49,2,1,,,5,,,,13,,2,,,6,12,5,,1,8,,,2,,,2,,,,,1,2,3,,30,,,,,,4,3,16,1,,,,,,3,,,1
Karnataka,UDIPI,13.54278636,74.87410308,,,3,28,9,10,3,20,238,9,5,1,,9,4,,,,,1,1,8,16,,,,3,9,,4,,29,1,55,1,2,2,2,,11,,,,,,,,,,,,,,,9,3,,,1,5,,,,,1,2,,,,1,1,3,,3,,,,,,1,1,34,1,1,,,,,1,,,1
Karnataka,UTTAR KANNADA,14.79702224,74.68722341,,,,1,,1,1,1,26,,,,,,3,,,,,,,8,,,,,4,1,,3,1,3,,3,,,,2,,1,,,,,,,,,,,,,,,,,,,2,,,,,,,,,,,,,,,,,,,,,,,9,,4,,,,,,,,
Karnataka,YADGIR,16.58070815,76.73433734,23,,,,,,,18,2,,,1,,,,,,,,,,,,,,,,1,,2,,,,2,,,,,,,,,,,,,,,,,,,,,,,,,,,,,,,,,,,,,,,,19,,,,,,1,,,,1,,,,,,,,
Kerala,ALAPPUZHA,9.491863784,76.49321252,,,1,93,1,4,4,2,65,2,,,12,159,2,,,,2,11,2,24,4,,,,3,8,,7,15,9,,33,1,,2,3,,9,,,,,1,,,,6,,,1,,,3,3,,,,4,,,,,4,,,,,,5,,,,,1,,,,,,53,21,14,,,,,1,,,1
Kerala,ERNAKULAM,10.0744727,76.54916509,,,1,53,22,17,12,78,91,3,19,,6,11,8,,5,2,3,21,407,42,34,,3,6,25,40,,21,77,61,5,49,14,3,13,31,,48,25,,1,,4,,1,,20,3,7,1,2,,9,15,1,4,,8,,1,,,20,8,2,,2,19,3,9,15,,1,,1,,1,,,164,8,7,2,,,,1,,,7
Kerala,IDUKKI,9.921938494,77.1023171,,,,,,,3,,72,1,2,,,,1,,,,3,2,6,,1,,,,2,2,,3,13,,,16,,,,,,1,,,,,,,,,1,,1,,,,,,,,,,,,,,,,,,,,,,,4,,,,,,1,,23,1,,1,,,,,,,
Kerala,KANNUR,11.97379896,75.62115069,,,1,2,3,7,6,5,13,1,5,88,76,22,13,,1,1,2,35,118,5,12,,,1,4,4,,6,6,28,3,54,4,,,6,,4,1,,,,,,,,,1,1,,,,,7,,,,2,,,,,24,3,,1,,1,,1,,,,,,,,,,51,,,4,,,,,,,
Kerala,KASARGOD,12.43597551,75.10714513,,,,,,1,2,,7,,3,223,4,2,1,,,,1,13,14,1,1,,,,,,,1,2,1,,10,3,,,,,1,,,,,,,,,,,,1,,,,,,,,,,,,,4,,,,,,,,,,,,,,,,,19,,,,,,,,,,
Kerala,KOLLAM,8.999936202,76.87192297,,,,19,1,2,7,5,468,3,7,,7,3,2,,,,,25,10,5,7,,,1,2,3,,9,15,12,,105,,1,,1,,3,,,,,,,,,8,,,,,,2,4,,2,,1,,1,,,3,2,,,1,,,3,,,,,,,,,,69,14,1,1,,,,,,,4
Kerala,KOTTAYAM,9.600302813,76.68678202,,,,,4,2,9,13,38,1,1,,3,2,7,,,2,36,7,30,5,23,,,2,4,6,,7,97,15,,37,,2,2,2,,2,1,,,,,,,,3,3,,,,,2,6,,1,,,,,,,9,1,,1,,1,,1,,,,,,,,,,69,1,,4,,,,1,,,3
Kerala,KOZHIKODE,11.49761548,75.85287898,,,,1,7,11,4,6,9,2,2,8,20,15,1,,,,91,31,18,7,14,,,1,,10,,9,9,8,,31,6,2,3,1,,5,,,,,,,,,1,3,,,,,,5,,,,,,1,,,8,1,,,,2,,2,,3,1,,,,,,1,72,2,1,7,,,,,,,
Kerala,MALAPPURAM,11.11405353,76.17871579,,,1,,6,10,9,11,19,5,3,3,5,,8,,1,,26,9,12,12,5,,,1,5,1,,16,9,15,,43,,,,2,,3,1,,,,,,,,1,,1,,1,1,,,,1,1,,,,,,32,6,,,,,,,,,,,,,,,1,56,4,,3,,,,2,,,
Kerala,PALAKKAD,10.95413593,76.5477918,,,,1,2,12,9,34,21,5,13,,8,7,5,,,,,29,32,5,5,,,7,11,12,1,22,35,38,2,59,37,4,3,8,,41,1,,2,,,1,,,4,2,1,1,,1,7,3,,1,,,,,,,16,,,,,9,2,,,,,,,,,1,,38,,,1,,,,2,,,
Kerala,PATHANAMTHITTA,9.263123974,76.96447622,,,,,,3,4,1,38,1,4,,,4,,,,,,2,7,,2,,,,1,2,,3,18,4,,43,,,,4,,2,,,,,,,,,1,,1,1,,,,,,,,,,,,,5,,,,,2,,1,,3,,,,,,,,42,7,,,,,,,,,1
Kerala,T.VANANTHAPURAM,8.545118,76.951726,,,1,2,,3,9,6,97,1,4,,16,3,3,,,,,1,7,3,16,,,1,4,3,,9,12,7,3,49,,,1,3,,2,3,4,1,,,1,2,,2,,,1,,1,4,,,,,1,,2,1,1,7,1,,,1,8,,1,,,,,,,,,,82,4,,3,2,,,,,,5
Kerala,THRISSUR,10.41763315,76.36372706,,,,3,3,18,14,8,47,4,15,4,13,3,10,,3,,4,8,15,18,21,,,1,2,11,,43,41,97,4,210,8,5,2,16,,40,1,,,1,,,,,3,3,1,2,1,1,9,26,,,1,1,,,,,17,14,,,,5,4,1,,,,,,,,,,93,1,,1,,,,4,,,3
Kerala,WAYANAD,11.68821231,76.13199387,,,1,,,,3,,35,,,,,,,,,,2,3,3,1,2,,,,,4,,2,,1,,8,,,,,,1,,,,,,,,,,,,,,,,,,,,,,,,,,,,,,,,,,,,,,,,,,18,,,,,,,1,,,
Ladakh,KARGIL,34.38046429,76.26146947,,,,,2,,,1,,,,,,,,,,,,,,,,,,,,,,,,,,4,,,,1,,,,,,,,,,,,,,,,,,,,,,,,,,,,,,,,,,,,,,,,,,,,,,,,1,,,,,,
Ladakh,LEH,34.156575,77.56845,,,,,2,,,1,2,,,,,1,,,,,,,,,,,,1,,,,,,,,6,,,,1,,1,,,,,,,,,,,,,,,,,,,,,,,,,1,,,,,,,,,,,,,,,,,1,,,,1,,,,,,
Lakshadeep,LAKSHADWEEP,9.98846788,72.93212844,,,,1,,1,,,,,,,,,,,,,,,,,,,,,,,,,,,,3,,,,,,,,,,,,,,,,,,,,,,,,,,,,,,,,,,,,,,,,,,,,,,,,,,,,,,,,,,
Madhya Pradesh,ALIRAJPUR,22.3123026,74.35546602,,,,,,,,,,,,,,,,,,,,,,,,,,,,,,,,,,3,,,,,,,,,,,,,,,,,,,,,,,,,,,,,,,,,,,,,,,,,,,,,,,,,,,,,,,,,,
Madhya Pradesh,ANUPPUR,23.07858619,81.7776667,,,,,,,,,,,,,,,,,,,,,,,,,1,,,1,,,,,,2,,,,,,,,,,,,,,,,,,,,,,,,,,,,,,,,,,,,,,,,2,1,,,,,,1,,,1,,,,,,,,
Madhya Pradesh,ASHOKNAGAR,24.69681856,77.83740948,,,,,,,,2,,,,,,,,,,,,,,,,,,,,,,,,,,,,,,,,,,,,,,,,,,,,,,,,,,,,,,,,,,,,,,,,,,1,,,,,,,,,,,,,,,,,,
Madhya Pradesh,BALAGHAT,21.86304666,80.36620696,3,,,,,,,17,,,1,3,,,,,,,,,2,1,,,,,3,2,,,,1,,18,,,,,,,,,,,,,,,,,,,,,,,,,,,,,,,,,,,,,,,,,,,,,,,,,,,,,,,,,,
Madhya Pradesh,BARWANI,21.83826305,75.06077001,52,,,,,1,2,2,1,,,,2,,,,,,,,,,,,,,2,,,,,,,4,,,,,,,,,,,,,,,,,,,,,,1,,,,,,,,,,,,,,,,,,,,,,,,,,2,,,,,,,1,,,
Madhya Pradesh,BETUL,21.96971732,77.74503507,,,,,,1,4,2,4,,,,,,1,,,,,,4,,,,,,1,,,1,,,,1,,,,,,,,,,,,,,,,,,,,,,,,,,,,,,,,,,,,,,,,,,,,,,,,,,,,,,,,,,
Madhya Pradesh,BHIND,26.44989805,78.74864547,,,,,2,4,3,6,10,,2,,1,1,,,,,,,,5,,,,2,5,6,,7,,9,,,,,1,3,3,2,,,,,,,,,2,,,1,,,1,,,,2,,1,,,,1,,,,,,,,,,,,,,,,,,,4,,,,,,,,
Madhya Pradesh,BHOPAL,23.49376242,77.42394846,,,,,1,1,5,9,23,1,,5,,3,1,,,,1,,3,6,16,,,1,8,9,,4,5,9,5,13,1,1,2,34,,63,,,,,,,,,31,,14,1,,10,10,2,2,2,5,,1,,,,4,1,,,,,,,,,7,,,,,1,1,26,1,,,,,,,,,
Madhya Pradesh,BURHAMPUR,21.39229788,76.36355547,27,,,,,,1,,3,,,1,35,1,,,,,,,,,,,,,1,,,1,,2,,,,,,,,,,,,,,,,,,,,,,,,,,,,,,,,,,,,,,,,,,,,,,,,,,1,,,,,,,,,,
Madhya Pradesh,CHHATARPUR,24.92267529,79.59100044,,,,,,,,3,,,1,1,,,,,,,,,,,,,,,,,,,,1,,3,1,,,,,1,,,,,,,,,,,,,,,,,,,,,,,,,,,,,,,,,,,,,,,,,,,,,,,,,,,,
Madhya Pradesh,CHHINDWARA,22.05126424,78.83688564,22,,,,5,2,2,9,13,1,2,3,7,1,,,,,,,1,1,,,3,6,4,6,,1,2,9,,10,,2,2,3,,2,,,,,,,,,1,,,,,1,,,,,,,,,,,1,,,,,,,,,1,,,,,,,,2,,2,,,,,,,,
Madhya Pradesh,DAMOH,23.88278521,79.46900981,,,,,,1,,,,,,28,,,,,,,,,,,2,,,,,,,,,,,5,,,,,,,,,,,,,,,,,,,,,,,,,,,,,,,,,,,,,,,,,,,,,,,,,,,,,,,,,,
Madhya Pradesh,DATIA,25.68977436,78.56367661,,,,,,1,,2,2,,,,,,,,,,,,,,,,,,1,,,1,,1,,,1,,,,,1,,,,,,,,,,,,,,,,,,,,,,,,,,,,,,,,,,,,,,,,,,,,1,,,,,,,,
Madhya Pradesh,DEWAS,22.70082957,76.3641408,,,,,1,8,13,11,5,1,,4,6,2,,,,3,1,,1,12,,,,3,6,6,,7,4,11,,5,9,7,6,6,,19,,,,,1,,,,,,2,,,1,29,16,,,11,,,,,,2,,,,,,1,,,,1,,2,,,,,1,,7,,,,,,,,
Madhya Pradesh,DHAR,22.5019351,75.15487597,36,,,,4,14,1,8,11,5,6,,7,8,7,,,,1,,4,28,,,,11,30,27,2,31,8,75,3,20,12,3,14,6,,64,,,1,,1,1,,,1,2,5,,,,7,33,3,11,88,,6,,,2,3,3,,,,,,1,,,1,,,,,1,4,4,,3,,,,,1,,,
Madhya Pradesh,EAST NIMAR(KHANWA),21.83359,76.342114,17,,,,1,7,2,8,2,,1,,1,,,,,,1,,,3,1,,,,2,,,,,2,,6,,,,,,,,,,,,,,,,,,,,,,,,,,,,,,,,,,,,,,,,2,,,,,,,,1,1,1,,,,,,,,
Madhya Pradesh,GUNA,24.65141322,77.28579588,,,,,,1,,,1,,,1,1,,,,,,,,,,,,,2,1,,,,,,,2,,,,,,2,,,,,,,,,1,,1,,,,,,,,,,,,,,,,,,,,,,,,1,,,,,,,1,,2,,,,,,,,
Madhya Pradesh,GWALIOR,26.03286139,78.20066009,,,,,,2,4,16,35,,4,,1,4,1,,,,13,,1,6,4,,,3,1,7,1,2,1,12,,32,3,1,3,4,,8,1,,,,,,,,,,1,,,1,1,1,,,,,,,,,,,,,,2,,1,,,1,,,,,,4,8,,7,5,,,,,,,
Madhya Pradesh,HARDA,22.20472506,77.10385803,3,,,,,,1,2,,,,,,,,,,,1,,1,,,,,,,,,,,1,,1,1,,,,,,,,,,,,,,,,,,,,,,,,,,,,,,,,,,,,,,,,,,,,,,,,,,,,,,1,,,
Madhya Pradesh,HOSHANGABAD,22.65194525,78.01918993,,,,,,3,1,32,4,2,,,2,,,,,,1,,,,1,,,,2,,,,,,,2,,,,,,,,,,,,,,,,,,,,,,,,,,,,,,,,,,,,,,,,,,,,,,,,,,1,,,,,,,,
Madhya Pradesh,INDORE,22.65432863,75.80724608,1,,,,4,31,8,132,170,11,4,3,26,24,55,,2,,28,,8,70,35,,,5,26,73,,73,10,95,2,26,46,14,8,16,,60,1,,,,7,1,1,,21,8,9,5,1,3,25,58,,6,26,,5,,,1,29,1,,,,3,1,2,,,2,,1,,,,2,75,6,46,4,,,,8,,,4
Madhya Pradesh,JABALPUR,23.354413,80.00842586,,,,,3,,5,20,15,1,2,18,,5,4,,,,,4,2,7,5,,,3,5,14,,5,2,17,,24,9,,4,11,,11,,,,,,,,,7,,2,,,1,2,2,1,3,11,,1,,,1,5,,,,,,1,3,,1,,1,,,,,2,14,3,1,4,,,,1,,,
Madhya Pradesh,JHABUA,22.92094559,74.68653274,2,,,,,,2,1,1,1,,1,,,,,,,,,,,,,,2,20,6,,,,,,3,1,1,,,,,,,,,,,,,,,,,,,,,,,,,,,,,,,,,,,1,,,,,,,,,,3,,,,,,,,,,,
Madhya Pradesh,KATNI,23.75207259,80.36482963,,,,,1,,,24,1,,,3,,,,,,,,,,,,,1,1,,2,,2,3,6,,71,,,,,,6,,,,,,,,,,,,1,,,,1,,,,,,,,,1,,,,,,1,,,1,,,,,,,,,,,,,,,,,,
Madhya Pradesh,MANDLA,22.63122226,80.54315291,,,,,2,1,,7,3,,1,,,,,,,,,,2,4,,,,4,2,1,,,1,10,,8,3,,1,,,,,,,,,,,,,,,1,,,,1,,2,,,,,,,,,,,,,1,,,,,,,,,1,1,,,,,,,,,,,
Madhya Pradesh,MANDSAUR,24.09138578,75.24790071,,,,,,6,1,2,8,1,,,2,,,,,,,,,1,,,,2,2,1,,3,,3,,7,1,,,,,,,,,,,,,,,,,,,,,1,,,,,,,,,,,,,,,12,,,7,,,,,,,2,1,,1,,,,,,,,
Madhya Pradesh,MORENA,26.37624372,77.83740954,,,,,,48,4,12,6,1,2,,1,1,1,,,,1,,,3,,,1,8,2,1,,1,6,14,,8,2,1,,1,,4,,,,,,,,,2,,,,,,,1,,,,,,,,,,,,,,,,,,,,,,,,,2,1,,6,,,,,,,,
Madhya Pradesh,NARSHINHAPUR,22.91763496,79.10968466,,,,,,3,,6,9,1,,1,,,,,,,1,,1,,,,,,,1,,,,,,3,,,,,,,,,,,,,,,,,,,,,,,,,,,,,,,,,,,,,,,,3,,,,,,,,,,,,,,,,,,
Madhya Pradesh,NEEMUCH,24.46342776,75.24858737,1,,,,,7,1,3,1,,,,3,2,,,,,,,,,,,,1,5,,,1,,2,,6,,2,,,,1,,,,1,,,,,,,,1,,,,,,,,,,,,,,,,,,,,,,3,,,,,,,,4,,1,,,,,,,,
Madhya Pradesh,PANNA,24.49605289,80.1871578,,,,,,,,,,,,,,,,,,,,,,,,,,,1,,,,,,,2,,,,,,2,,,,,,,,,,,,,,,,,,,,,,,,,,,,,,,,,,,,,,,,,,,,,,,,,,,,
Madhya Pradesh,RAISEN,23.22719469,78.20203327,,,,,2,3,3,28,5,2,6,4,8,1,1,,,,,,5,20,,,,,2,8,,12,1,24,2,20,6,1,1,3,,19,,,,,,1,,,18,3,3,,,3,2,1,,,8,,2,,,,1,,,,,,1,,,1,,,,,,,,1,,,,,,,2,,,
Madhya Pradesh,RAJGARH,23.85617414,76.73330338,,,,,,,4,,,,2,,1,,,,,,,,,,,,,2,,1,1,,,4,,1,,,,,,,,,,,,,,,,,1,,,,,,,,,,,,,,,,,,,,,,,2,,,,,,,2,,,1,,,,,,,,
Madhya Pradesh,RATLAM,23.56634822,75.10714114,4,,,,2,6,1,6,1,,,1,,,,,,,,,,3,,,,4,3,2,,1,,17,,2,8,,,1,,1,,,,,,,,,1,,2,,,,,2,,,,,,,,,3,,,1,,,,,,1,,,,,,,2,5,,2,1,,,,,,,
Madhya Pradesh,REWA,24.76875115,81.60384416,,,,,,1,2,9,3,,,3,,,,,,,,2,2,,1,,,,1,,,,,6,,4,1,,1,1,,,,,,,,,,,1,,5,,,,,,,,,,,,,,,,,,,,,,,4,,,,,,,,,,,,,,,1,,,
Madhya Pradesh,SAGAR,23.93219282,78.838259,,,,,,1,1,5,4,1,1,81,,,,,,,1,1,,1,2,,,1,2,3,,,1,1,,,1,,,,,,,,,,,,,,,1,,,,1,,11,,,,,,,,,,,,,,,1,2,,1,,,,,,1,,,,1,,,,,,,,
Madhya Pradesh,SATNA,24.53858013,80.89898815,,,,,,6,1,6,2,,,8,,,,,,,1,1,2,1,2,,,,1,4,,,,5,1,24,,2,1,1,,2,,,,,,,,,2,,2,,,,5,1,,,,,,,,,1,,,,,,,,,,,,,,,,1,2,,1,,,,,,,,
Madhya Pradesh,SEHORE,22.95327862,77.10248476,,,,,,,5,4,1,1,,,7,,,,,,,,,1,1,,,,,2,,,,,,,1,,2,,,1,,,,,,,,,,,,,,,,,,,,,,,,,1,,,,,,,,,1,,,,,,,2,,,,,,,,,,,
Madhya Pradesh,SEONI,22.47677091,79.56068187,,,,,,1,2,1,,,1,,,,,,,,,,,,1,,,,,,,1,,,,,,,,,,,,,,,,,,,,,,,,,,1,,,,,,,,,,,,,,,,,,1,,,,,,,,,,,,,,,,,,
Madhya Pradesh,SHAHDOL,23.62691876,81.42754967,,,,,,,1,1,,,,,,,,,,,,,,1,,,,1,2,,,,,,,1,,,,,,1,,,,,,,,,,,,,,,,,,,,,,,,,,,,,,,,,,,,,,,,,,3,,,,,,,,,,
Madhya Pradesh,SHAJAPUR,23.42423183,76.59436344,,,,,,,2,4,,,1,,,,,,,,,,,,,,,2,1,,,,,3,,4,1,,2,,,,,,,,,,,,,,,,,,,,,,,,,,,,1,,,,,,1,,,5,1,2,,,,,,,,4,,,,,,,,
Madhya Pradesh,SHEOPUR,25.73615028,76.91820437,,,,,,,,,,,,,,,,,,,,,,,,,,,,,,,,,,,,,,,,,,,,,,,,,,,,,,,,,,,,,,,,,,,,,,,,,,1,,,,,,,,,,,,,,,,,,
Madhya Pradesh,SHIVPURI,25.34350917,77.74485943,,,,,,,2,,2,1,1,,,,,,,,,,,,,,,,,,,2,,,,2,,,,,,,,,,,,,,,,,,,,,,,,,,,,,,,,,,,,,,,,6,,,,,,,,1,,,,,,,,,,
Madhya Pradesh,SIDHI,24.21303646,81.77904003,,,,,,,,,,,,,,,,,,,,2,,,,,,,,2,,,,,,2,,,,,,,,,,,,,,,,,,,,,,,,,,,,,,,,,,,,,,,,,,,,,,,,,,,,,,,,,,
Madhya Pradesh,SINGROWLY,24.20176,82.671089,,,,,,,,4,1,,,,,,,,,,,,,,,,,1,5,16,,,2,,,2,1,1,,,,1,,,,,,,,,,,,,,,,2,,,,,,,,,,,,,,,,1,,3,,,,,,,2,1,,,,,,,,,,
Madhya Pradesh,TIKAMGARH,24.96920678,78.92881884,,,,,,,,1,,,,,,,,,,,,,,,,,,,,,,,,2,,2,,,,,,,,,,,,,,,,,1,,,,,,,,,,,,,,,,,,,,,,,,,,,,,,,,,1,,,,,,,,
Madhya Pradesh,UJJAIN,23.28122185,75.52766448,,,,,1,1,2,28,20,4,1,,13,1,1,,,,,,,33,1,,,4,17,10,,12,,13,,12,3,2,2,2,,9,1,,,,,,,,3,,1,,,2,,14,,4,,,,,,2,2,,,,,,,,,,1,,,,,,1,9,,11,1,,,,,,,
Madhya Pradesh,UMARIA,23.60176402,81.07545083,,,,,,,,,,,,,,,,,,,,,,,,,,,,,,,,,,,,,,,,,,,,,,,,,,,,,,,,,,,,,,,,,,,,,,,,,,3,,,,,,,,,,,,,,,,,,
Madhya Pradesh,VIDISHA,23.94772564,77.83637948,,,,,,1,,2,,,,,,,,,,,1,,,1,,,,2,,7,,,,,,3,,,,,,,,,,,,,,,,,,,,,,,,,,,,,,,,,,,,,,,,,,,,,,,,,,2,,,,,,,,
Madhya Pradesh,WEST NIMAR(KHARGONE),21.832969,75.618697,64,,,,2,12,2,11,3,,1,1,8,1,,,,,,,,,,,,,4,,,2,,3,,2,,,,,,1,,,,,,,,,,,,,,,,1,,,,,,,,,,,,,,,,,,2,,,,,,,1,1,,,,,,,,,,
Maharashtra,AHILYANAGAR,19.105114,74.752968,2,,,,5,8,51,4,39,6,14,3,2,2,1,,,,2,1,1,20,3,,,1,11,7,,7,4,46,1,9,5,6,23,12,,68,4,,,,1,,,,36,4,3,1,2,10,10,27,1,,20,,,,,11,7,,,,,,1,,,,1,,,,,1,1,9,2,7,,,,,,,,
Maharashtra,AKOLA,20.70244222,77.10231716,60,,,,,54,,98,19,,1,,3,,,,,,,,1,,3,,,1,,10,,2,2,9,,13,,,,,,,1,,,,,,,,2,,,,,,,6,,,,,,,,,,,,1,,,1,,,,1,,,,1,,,17,,1,,,,,,,,
Maharashtra,AMRAVATI,21.11877526,77.65378279,28,,,,,29,1,15,7,,3,,11,1,4,,1,,,1,,,1,,,,5,1,1,,2,,,10,3,1,1,2,,2,,,,,,,,,2,,,,,1,,2,,,,,,,,,1,,,,,2,,,1,3,,,1,,,,,10,,,,,,,,,,
Maharashtra,BHANDARA,21.07604292,79.82984459,,,,,,2,4,4,5,,1,1,,,,,,,,1,,,,,,,3,,,1,,2,,6,4,4,2,,,15,,,,,,,,,,,,,,,,1,,,2,,,,,,1,,,,,,,,,1,,,,,,,,,,,,,,,,,,
Maharashtra,BID,18.995816,75.758756,34,,,,,7,,1,10,,1,,5,1,,,,,,,,,,,,,,3,,1,,1,,6,,,,,,1,,,,,,,,,,,,,,,,,,,,,,,,,,,,,,,,,,2,,,,,,,,1,,,,,,,,,,
Maharashtra,BULDHANA,20.45914861,76.36372712,68,,1,,,78,1,20,4,,2,,2,1,,,,,,1,,22,,,,,9,3,,2,1,2,,9,,,1,1,,2,,,,,,,,,,,,,,,1,1,,,,,,,,,,,,,,,,,,2,,,,,,1,,6,,2,,,,,1,,,
Maharashtra,CHANDRAPUR,20.21241795,79.5599993,19,,,,,4,1,37,1,,,,1,,,,,,,,,6,,,6,,3,4,,1,2,,,21,9,,,,,,,,,,,,,,,,,,,,,,,,1,,,,,,,,,,,,,,,2,,,,,,,,13,1,1,,,,,,,,
Maharashtra,CHHATRAPATI SAMBHAJINAGAR,19.858453,75.329572,58,,1,,4,2,5,16,26,1,15,1,3,10,1,,,1,,,3,59,11,,,1,27,32,1,50,20,119,2,20,7,4,22,25,,154,7,1,,2,9,,1,,26,,8,2,2,7,34,29,2,,98,,2,,,182,8,,,,,2,1,4,,,4,,,,,1,1,18,4,2,1,,,,1,,,1
Maharashtra,DHARASHIV,18.193794,76.039109,,,,,,3,1,,12,,3,,1,,,,,,,,1,,,,,,1,15,,1,,1,,2,,,1,1,,5,,,,,,,,,,,,,,,,,,,,,,,,,,,,,,,,,,1,,,,,,,,,,,,,,,,,,
Maharashtra,DHULE,21.06037367,74.68722345,5,,,,1,16,4,10,2,3,1,,20,1,2,,,,,,1,2,1,,,,5,6,,,1,4,,8,2,1,,,,2,,,,,,,,,2,,1,,,,1,,,,,,,,,,1,,,,,,,,,,,,,,,,,5,1,2,,,,,,,,
Maharashtra,GADCHIROLI,19.49913398,80.27690298,,,,,,,,20,,,,,,,,,,,,,,2,,,,,2,,,1,,,,,1,,,,,,,,,,,,,,,,,,,,,,,,,,,,,,,,,,,,,,,2,,,,,,,,1,,,,,,,,,,
Maharashtra,GONDIA,21.28624867,80.18716181,,,,,,1,,12,,1,1,7,,,,,,,,,,1,1,,,,2,5,,,,,,2,,,1,,,1,,,,,,,,,,,,,,,,,,,,,,,,,,,,,,,,,,,,,,,,,,2,,,,,,,,,,
Maharashtra,HINGOLI,19.58088763,77.10231715,7,,,,,3,,1,5,,1,,,,,,,,,,,,,,,1,,,,,,,,1,,,,,,1,,,,,,,,,,,,,,,,,,,,,,,,,,,,,,,,,,1,,,,,,,,,,1,,,,,,,,
Maharashtra,JALGAON,21.04245772,75.52766853,88,,,,16,25,6,39,20,1,2,8,4,4,,,,,,,,27,4,,,1,25,11,,7,4,128,2,3,3,3,,3,,12,1,,,,,,,,8,2,2,1,,3,7,5,,,5,,,,,,6,,,,,,,,,,,,,,,,,9,,3,1,,,,,,,
Maharashtra,JALNA,19.68393674,75.9932788,41,,,,,6,1,24,9,1,,3,5,,,,,,,,,1,1,,,,3,,,,1,2,,,48,2,1,,,7,,,,,,,,,2,,2,,,,1,3,,,1,,,,,2,1,,,,,,,,,2,,,,,,,,1,,1,,,,,,,,
Maharashtra,KOLHAPUR,16.3960884,74.12433792,,,1,,2,8,26,20,83,4,8,3,335,10,11,,2,,1,,7,32,13,,2,2,25,6,,9,2,30,4,53,14,11,208,16,,200,7,1,,,1,,,,12,3,1,1,,,65,58,,4,83,,,,,10,11,2,,,,,1,,,2,1,,,,,,,37,1,,2,,,,,,1,
Maharashtra,LATUR,18.43519006,76.73399403,,,,,,21,2,27,16,,5,1,,1,,,,,,,,4,3,,,1,1,3,,,1,5,,,1,,,2,,4,,,,,,,,,,,,,,,,,1,,,,,,,,1,,,,,,,,,3,1,,,,,,,3,,,,,,,,,,
Maharashtra,MUMBAI,19.00376776,72.83955865,,1,,,1,1,1,1,46,,4,3,5,25,153,,4,4,6,6,2,6,93,,,,,8,,4,,22,4,30,,,,4,,20,1,,,,1,,,,3,,3,4,1,4,17,8,,,2,,,,,,4,69,1,1,3,5,2,9,,,1,,1,,1,,4,45,2,,,1,,1,2,,2,1
Maharashtra,MUMBAI(SUBURBAN),19.15689949,72.87534887,,2,1,1,3,4,12,1,90,,13,,55,16,295,,3,,25,6,10,49,125,,,5,13,52,1,45,33,101,6,74,3,14,9,31,,188,29,12,1,5,16,4,1,,52,,15,8,13,37,86,126,1,11,45,1,2,1,,6,20,501,1,1,5,14,32,17,1,,9,,1,1,,2,1,99,,3,,6,1,,4,,,6
Maharashtra,NAGPUR,21.31973335,79.19965021,38,,,,9,17,10,31,79,11,15,3,25,4,7,,,,,3,19,62,24,,3,9,31,60,3,39,12,88,3,84,91,24,36,58,2,89,1,1,1,,1,,,,9,2,4,3,2,6,20,35,1,1,28,,1,2,,,27,,,1,3,2,11,10,,6,6,,,,2,2,2,75,1,6,3,,,,2,,1,
Maharashtra,NANDED,18.94621799,77.37837751,16,,,,1,14,1,8,10,,3,1,,1,,,,,,,1,,1,,,2,3,1,,3,1,2,,3,,,1,1,,,,,,,,,,,,,,,,,,,,,,,,,,,1,,,,,,,,,,,,,,,,,4,,1,,,,,,,,
Maharashtra,NANDURBAR,21.74956023,74.12399463,9,,,,,,,1,4,,1,,1,,,,,,,,,,,,,,,1,,,,,,,1,,,,,,,,,,,,,,,,,,,,,,,,,,,,,,,,,,,,,,,,,,,,,,,1,,5,,,,,,,,
Maharashtra,NASIK,20.16492346,74.02932417,1,,1,,24,7,11,11,44,8,18,3,57,9,2,,,25,,,10,85,19,,,2,31,52,,39,18,108,10,43,28,17,12,41,,220,25,,,,5,,,1,100,,15,8,1,34,49,56,11,4,119,,,,,4,11,,,2,1,2,9,3,,1,,,,,1,,1,29,1,15,,,,,,,,
Maharashtra,PALGHAR,19.78913366,72.99243721,,4,2,5,4,3,7,6,22,3,17,3,181,42,118,,5,2,23,5,27,101,80,,,23,149,152,4,153,81,170,7,59,73,50,33,60,1,406,10,,1,8,6,1,,,31,3,45,39,16,15,62,87,3,2,14,1,4,,,5,31,8,,3,9,24,32,1,,,1,2,,3,,3,6,19,,4,,,,,,,,
Maharashtra,PARBHANI,19.26683571,76.64058317,42,,1,,1,2,,,8,,1,,,1,,,,,,,,,,,1,,,,,,2,3,,3,,,,,,,,,,,,,,,,,,,,,,,,,,,,,,,,,,,,,,,,1,,,,,,,,,,,,,,,,,,
Maharashtra,PUNE,18.68617896,74.02966749,,,4,,29,4,58,32,118,24,22,7,5,13,20,,2,,1,,30,134,64,,1,14,88,113,1,103,93,279,21,85,47,38,87,245,8,960,98,3,6,3,73,3,1,,152,13,45,27,37,76,389,289,27,43,678,1,5,1,,85,33,2,,2,8,8,19,9,1,2,4,1,,,,2,,140,5,7,2,,,,12,,,2
Maharashtra,RAIGARH,21.894351,83.395933,,,14,20,6,8,4,20,24,4,23,1,3,7,3,,,,1,,6,30,14,,,65,215,171,3,78,17,43,7,83,88,16,23,54,1,125,,1,,,4,1,1,,5,3,1,2,2,2,27,24,1,11,6,4,,,,,7,,,1,1,3,3,27,,,18,1,,1,,1,2,22,1,34,,1,,,9,,,
Maharashtra,RATNAGIRI,17.25037376,73.3708682,,,,12,18,,1,1,15,,11,2,,2,,,,,,,,7,,,,,36,31,,10,1,7,1,9,,1,1,3,,13,,,,,1,,,,,,1,,,1,2,,,,1,1,,,,,1,,,,,2,,,,3,2,,,,,,,5,1,,,,,,,,,
Maharashtra,SANGLI,17.17311966,74.68705176,,,,,5,7,22,20,36,20,4,1,47,3,9,,,1,,,7,19,4,,,2,6,11,,6,2,23,,33,2,7,42,13,,35,1,,,,3,,1,,10,3,1,,,3,21,13,,2,12,,1,,,,3,,,,,,,,,,,,,,,1,,13,3,21,1,,,,,,1,1
Maharashtra,SATARA,17.58176786,74.02915249,,,1,,31,1,12,10,40,11,9,2,6,8,2,,1,2,1,1,3,7,,,,,21,19,,24,14,28,1,9,5,3,18,15,,62,3,,,,3,,,1,20,2,2,,2,1,54,28,1,2,26,,,,,5,4,,,,,1,1,2,3,4,2,1,,,,1,2,11,,3,,,,,,,1,
Maharashtra,SINDHUDURG,16.16947359,73.55906807,,,,2,2,1,1,1,19,,3,,,,,,,,,,,1,,,,1,1,1,,1,,,,6,1,,,,,2,,,,,,1,,,,,,,,,2,,,,,,,,,,,,,,,,,,,,,,,,,,,2,,,,,,,,,,
Maharashtra,SOLAPUR,17.69861619,75.52784016,,,1,,1,6,20,38,43,3,10,16,33,9,27,,,1,,,1,5,1,,,1,15,8,,29,7,32,,16,2,1,11,9,,26,,1,,,,,,,4,,1,,,,12,,,,2,,,,,,,1,,,,1,,1,,3,1,,1,,,,,20,1,,1,,,,,,,
Maharashtra,THANE,19.27252986,73.3713832,,2,2,9,21,1,31,34,190,12,34,1,569,107,332,,7,14,36,9,35,134,177,,1,49,276,289,,191,84,201,25,141,67,43,41,220,1,507,53,6,3,4,44,12,3,,142,11,30,32,19,50,294,190,4,17,50,1,3,,,2,50,24,,,10,22,30,28,1,,12,2,,2,1,4,1,139,4,50,,1,2,1,36,2,1,4
Maharashtra,WARDHA,20.80795625,78.56625549,51,,,,3,6,1,2,3,1,,,20,,3,,1,,1,,1,5,,,,,2,4,,3,,2,,2,4,,,2,,,,,,,,,,,,,,,,,,4,,1,,,,,,,,,,,,,,,,2,,,,,,,,5,1,1,,,,,1,,,
Maharashtra,WASHIM,20.14190908,77.10248882,14,,,,,9,,8,1,,1,,3,,,,,,,,,5,,,,,,,,,,,,1,,,,,,1,,,,,,,,,,,,,,,,,,,,,,,,,,,,,,,,,,,,,,,,,,4,,,,,,,,,,
Maharashtra,YAVATMAL,20.12000978,78.11065486,102,,,,,17,,6,3,,2,,10,,,,,,,,,2,,,2,1,2,1,,,,2,,31,1,,,,,,,,,,,,,,,,,1,,,,,,,,,,,,,3,,,,,,,,,8,,,,,,,,5,1,,,,,,,,,
Manipur,BISHNUPUR,24.5319948,93.78414492,,,,,,,,2,,,4,,,,,,,,,,1,,,,,,,,,,,,,14,,,,,,1,,,,,,,,,,,,,,,,,,,,,,,,,1,,,,,,,,,,,,,,,,,,,,,,,,,,,
Manipur,CHANDEL,24.14416872,94.02901593,,,,,,,,,,,,,,,,,,,,,,,,,,,,,,,,1,,2,,,,,,,,,,,,,,,,,,,,,,,,,,,,,,,1,,,,,,,,,,,,,,,,,,,,,,,,,,,
Manipur,CHURACHANDPUR,24.20084757,93.66266183,,,,,,,,,,,,,1,,,,,,,,,,,,,,,,,,,,,3,,,,,,,,,,,,,,,,,,,,,,,,,,,,,,,,,,,,,,,,,,,,,,,,,,,,,,,,,,
Manipur,IMPHAL WEST,24.78712494,93.88589013,,,,2,2,1,,3,3,4,9,,,1,,,,1,,1,2,,4,,,,,,,,,2,,62,1,,,,,1,,,,,,,,,1,,,,,,,,,,,,,,,,2,2,,,,,,1,,,,,,,,,,3,,,,,,,,,2,
Manipur,IMPHAL(EAST),24.80862433,94.02832931,,,,,4,,,2,3,,9,,3,,,,,,,,,,,,,,,2,,,,2,,35,,,,3,,,,,,,,,,,,,,,,1,,1,,,,,,,,,3,,,,,1,,,,,,,,,,,,1,,,,,,,,,,
Manipur,SENAPATI,25.32589429,94.15137106,,,,,,,,,,,,,2,,,,,,,,,,,,1,,,,,,,,,2,2,,,,,,,,,,,,,,,,,,,,,,,,,,,,,,,,,,,,,,,,,,,,,,,,,,,,,,,,,
Manipur,TAMENGLONG,24.96408398,93.50171333,,,,,,,,,,,,,,,,,,,,,,,,,,,,,,,,,,1,,,,,,,,,,,,,,,,,,,,,,,,,,,,,,,,,,,,,,,,,,,,,,,,,,,,,,,,,,
Manipur,THOUBAL,24.61804804,94.0283293,,,,1,,,1,,,,1,,1,,,,,,,1,2,,,,,,,,,,,,,45,,,,,,,,,,,,,,,,,,,,,,,,,,,,,,,2,,,,,,,,,,,,,,,,,,,,,,,,,,,
Manipur,UKHRUL,25.31537829,94.47962733,,,,,,,,,,,,,,,,,,,,,,,,,,,,,,,,,,2,,,,,,,,,,,,,,,,,,,,,,,,,,,,,,,,,,,,,,,,,,,,,,,,,,,,,,,,,,
Meghalaya,EAST GARO HILLS,25.57272069,90.52577697,,,,,,,,,,,1,,,,,,,,,,,,,,,,,,,,,,,2,,,,,,,,,,,,,,,,,,,,,,,,,,,,,,,,,,,,,,,,,,,,,,,,,,,,,,,,,,
Meghalaya,EAST KHASI HILL,25.37342745,91.75387636,,,,,,,,4,2,,3,,,,,,,,,,,,2,,,,,,,,,,,11,,,,,,1,,,,,,,,,,,,,,,,,,,,,,,,,,,,,,,,1,,,,,,,,,,9,,,,,,,,,,
Meghalaya,JAINTIA HILLS,25.507317,92.215411,,,,,,,,,,,,,,,,,,,,1,,,,,22,,,,,,,,,14,,,,,,,,,,,,,,,,,,,,,,,,,,,,,,,,,,,,,,,,,,,,,,,,1,,,,,,,,,,
Meghalaya,RI-BHOI,25.93705408,92.0668577,,,,,,,1,3,8,2,10,,1,,,,,,,10,16,3,1,,3,8,2,3,,,,8,,24,19,2,2,,,2,,,,,,,,,1,,,,,,,,,,,,,,,,,,,,,,,,,,,,,,,,,1,,,,,,,,,,
Meghalaya,SOUTH GARO HILL,25.33596984,90.56291701,,,,,,,,,,,,,,,,,,,,,,,,,,,,,,,,,,1,,,,,,,,,,,,,,,,,,,,,,,,,,,,,,,,,,,,,,,,,,,,,,,,,,,,,,,,,,
Meghalaya,WEST GARO HILLS,25.76320008,90.22446087,,,,,,,,,,,,,,,,,,,,,,,,,,,,,,,,,,18,,,,,,,,,,,,,,,,,,,,,,,,,,,,,,,,,,,,,,,,,,,,,,,,,,,,,,,,,,
Meghalaya,WEST KHASI HILL,25.56708511,91.28944159,,,,,,,,,,,2,,,,,,,,,2,,,,,11,,,,,,,,,2,1,,,,,,,,,,,,,,,,,,,,,,,,,,,,,,,,,,,,,,,,,,,,,,,,,,,,,,,,,
Mizoram,AIZAWAL,23.88391855,92.89762,,,,,1,,1,,10,2,4,,9,4,17,,,,,1,10,3,1,,,,,2,,1,2,1,,6,1,,,9,,1,,,,,,,,,,,,,,1,,,,1,,,,,,,16,,1,,,,,,,,,,,,,,,13,,,,,,1,,2,,
Mizoram,CHAMPHAI,23.64193905,93.17761717,,,,,,,,,5,,,,1,,,,,,,,,,,,,,,,,,,,,7,,,,,,,,,,,,,,,,,,,,,,,,,,,,,,,,,,,,,,,,,,,,,,,,,,,,,,,,,,
Mizoram,KOLASIB,24.17234062,92.73816181,,,,,1,1,,,1,,,,,,2,,,,,1,2,,,,,,,,,,,,,7,,,,,,,,,,,,,,,,,,,,,,,,,,,,,,,,,,,,,,,,,,,,,,,,,,,,,,,,,,
Mizoram,LAWNGTLAI,22.31745684,92.69872466,,,,,,,,,,,,,,,,,,,,,,,,,,,,,,,,,,4,,,,,,,,,,,,,,,,,,,,,,,,,,,,,,,,,,,,,,,,,,,,,,,,,,,,,,,,,,
Mizoram,LUNGLEI,22.88845523,92.69941133,,,,,1,,,,1,,,,,,1,,,,,,,,,,,,,,,,,,,3,,,,1,,,,,,,,,,,,,,,,,,,,,,,,,,,,,,,,,,,,,,,,,,,,,,,,,,,,,,
Mizoram,MAMIT,23.84328432,92.53856763,,,,,,,,,,,,,,,,,,,,,,,,,,,,,,,,,,1,,,,,,,,,,,,,,,,,,,,,,,,,,,,,,,,,,,,,,,,,,,,,,,,,,,,,,,,,,
Mizoram,SAIHA,22.26495795,92.97617705,,,,,,,,,1,,,,,,5,,,,,,,,,,,,,,,,,,,5,,,,1,,,,,,,,,,,,,,,,,,,,1,,,,,,,1,,,,,,,,,,,,,,,,,1,,,,,,,,,,
Mizoram,SERCHHIP,23.31341145,92.8979633,,,,,,,,,,,,,9,4,6,,,,,,1,,,,,,,,,,,,,3,,,1,3,,,,,,,,,,,,,,,,,,,,,,,,,,,,,,,,,,,,,,,,,,,,1,,,,,,,,,,
Nagaland,MON,26.80871521,94.97699204,,,,,,,,,,,,,,,,,,,,2,1,,,,,,,,,,,,,,,,,,,,,,,,,,,,,,,,,,,,,,,,,,,,,,,,,,,,,,,,,,,,,,,,,,,,,,,
Nagaland,DIMAPUR,25.7848301,93.8048211,,,,,,,1,9,2,,3,,,,,,,,,20,19,,7,,,,,,,,1,3,,56,,,,3,,1,,,,,,,,,,,,,,,,,,,,,,,,,,,,,,,,,,,,,,,,,,17,,,,,,,,,,
Nagaland,KOHIMA,25.75199033,94.11009625,,,,,,,,,,,,,1,,,,,,,3,,,2,,,,,,,,1,,,9,,,,1,,,,,,,,,,,,,,,,,,,,,,,,,,,2,,,,,,,,,,,,,,,,,4,,,,,,,,,,
Nagaland,MUKOKCHUNG,26.49606173,94.52153153,,,,,,,,,2,,,,,,,,,,,1,11,,3,,,,,,,,,,,3,,,,,,,,,,,,,,,,,,,,,,,,,,,,,,,,,,,,,,,,,,,,,,,,1,,,,,,,,,,
Odisha,ANGUL,20.92385749,84.8564485,,,,,,,1,12,5,,,,,,,,,,,,,,,,1,1,,4,,,2,,,5,4,1,,1,,8,,,,,,,,,,,,,,,,,,,,,,,,,1,,,,,,,,,4,,,,,,,,3,,,,,,,,,,
Odisha,BALANGIR,20.67499254,83.16472706,14,,,,1,,,69,1,,1,1,1,1,,,,,,1,,5,,,,1,,,,1,1,2,,18,2,1,1,,,2,,,,,,,,,,,,,,,,,,,,,,,,,,,,,,,,,,4,,,,,,,,1,,2,,,,,,,,
Odisha,BALASORE,21.492597,86.914352,,,,13,,2,2,31,1,3,5,1,1,4,,,,,1,4,,2,1,,,4,3,6,,3,6,19,,30,1,4,,2,,2,,,,,,,,,3,,2,,,,,1,,,,,,,,,1,,,,,,,,,,,,,,,,,2,,1,,,,,1,,,
Odisha,BARAGARH,21.25806477,83.50667561,5,,,,1,7,3,136,,,1,7,1,,,,,,,1,,,,,,1,,,,,,6,,38,,,,,,,,,,,,,,,1,,,,,,,1,,,,,,,,,,,,,,,,,,1,,,,,,,,1,,,,,,,,,,
Odisha,BAUDH,20.66379158,84.1431689,,,,,,,,16,,,1,,,,,,,,,,,,,,,,,,,,,,,1,,,,,,,,,,,,,,,,,,,,,,,,,,,,,,,,,,,,,,,,2,,,,,,,,,,,,,,,,,,
Odisha,BHADRAK,20.96820658,86.66127859,,,,3,,,,40,,2,11,1,,,,,,,,5,,,,,,1,,1,,,1,,,6,1,,,,,,,,,,,,,,,,,,,,,,,,,,,,,,,,,,,,,,,,,,,,,,,,,,,,,,,,,
Odisha,CUTTACK,20.4223403,85.64348562,,,,1,1,2,9,36,27,12,6,11,,,2,,,,1,7,2,15,3,,1,3,8,13,,6,2,24,2,45,10,2,5,8,,4,,,,,1,1,,,6,,2,,,,4,3,1,2,1,,,,,,3,,,,,,,,,3,,,2,1,,,,14,,5,,,,,3,,,
Odisha,DEOGARH,21.49447387,84.85679183,,,,,,,,3,,,,,,,,,,,,,,,,,,,,,,,,,,,1,,,,,,,,,,,,,,,,,,,,,,,,,,,,,,,,,,,,,,,,,,,,,,,,,,,,,,,,,
Odisha,DHENKANAL,20.84548198,85.43738436,,,,,,1,1,18,4,1,,,,1,,,,,,,,,,,,,2,,,1,,,,13,11,2,,,,1,,,,,,,,,1,,,,,,,,,,,,,,,,,,,,,,,,,2,,,,,,,,1,,,,,,,1,,,
Odisha,GAJAPATI,19.19413567,84.18588177,,,,,,,,8,43,,,,,,,,,,,,,,,,,,,,,,,,,9,,,,,,,,,,,,,,,,,,,,,,,,,,,,,,,,,,,,,,,,,,,,,,,,,,,,,,,,,,
Odisha,GANJAM,19.58903935,84.68991978,,,,,,2,3,42,95,1,8,,1,,,,,,,1,,2,1,,,1,3,,,1,,6,,74,1,,1,,,5,,,,,,,,,1,,,,,,,1,,,,,,,,,,,,,,,,1,,,,,,,1,,,1,,,,,,,,,,
Odisha,JAGATSINGHAPUR,20.20031677,86.33801804,,,,4,,1,4,7,2,1,11,,,1,,,,,,4,,,,,1,2,3,,,,,2,,2,1,,,,,,,,,,,,,,,,,,,,,1,,,,,,,,,,,,,,,,,,,,,,,,,,,,2,,,,,,,,
Odisha,JAJPUR,20.76842497,86.17517452,,,,,1,2,,13,2,1,1,2,,,,,,,,,,,,,6,,1,,,,,,,14,19,6,5,3,,1,,,,,,,,,,,,,,,,,,,,,,,,,,,,,,,,,,,,,,,,1,1,2,,,,,,,1,,,
Odisha,JHARSUGUDA,21.79482116,83.88987599,,,,,,,,16,2,,,38,,,,,,,,,,,,,4,5,4,1,,,,5,,28,7,4,,3,,4,,,,,,,,,1,,3,,,,2,2,,,,,,,,,,,,,,,,,,1,1,,,,,,2,5,,2,,,,,,,,
Odisha,KALAHANDI,19.91712086,83.16404041,6,,,,,2,1,100,3,1,3,1,4,,1,,,,,,,,,,,,1,,,,2,,,9,,1,,,,2,,,,,,,,,,,,,,,,1,,,,,,,,,,,,,,,,,,4,1,,,,,,,,,,,,,,,,,
Odisha,KANDHAMAL(PHULBANI),20.1369393,84.0172559,,,,,,,,,,,,,,,,,,,,,,,,,,,,,,,,1,,,,,,,,,,,,,,,,,,,,,,,,,,,,,,,,,,,,,,,,,,,,,,,,,,,,,,,,,,,,
Odisha,KENDRAPARA,20.58804122,86.6607636,,,,1,,,2,20,3,,5,2,,,,,,,,17,,,,,,,,,,,,,,5,,,1,,,,,,,,,,,,,,,,,,,,,,,,,,,,,,,,,,,,,,,,,,,,,,,,,,,,,,,
Odisha,KENDUJHAR,21.51830852,85.68440497,,,,,,,2,16,4,,1,,,,,,,,,,,,,,,,2,2,,,,,,26,38,3,,,,3,,,,,,,,,,,,,,,,,,,,,,,,,,,,,,,,,,1,1,,,,,,,1,,,,,,,,,,
Odisha,KHURDA,20.132715,85.47863346,,,,19,4,2,2,40,26,15,13,,2,6,4,,,,2,11,4,8,4,,,5,9,8,,6,2,25,,84,2,8,6,5,,10,,,,,,,,,8,,6,,1,1,2,5,,,2,1,,1,,1,5,1,,,,,,2,1,,1,,1,,,,1,23,,5,2,1,,,1,,,
Odisha,KORAPUT,18.85913837,82.73436949,,,,,,1,,28,75,1,,1,1,,,,,,,,,1,1,,,1,,1,,,,,,2,,1,,,,1,,,,,,,,,2,,,,,,,,,,,,,,,,,,,,,,,,,1,,,,,,,,1,,1,,,,,,,,
Odisha,MALKANGIRI,18.16733803,81.9534801,,,,,,,,11,,,,13,,,,,,,,,,,,,,,,,,,,,,,,,,,,,,,,,,,,,,,,,,,,,,,,,,,,,,,,,,,,,,2,,,,,,,,,,,,,,,,,,
Odisha,MAYURBHANJ,22.01472487,86.41838201,,,,,,,,24,1,1,,3,,,,,,,,,,1,,,,,2,1,,,,,1,16,1,,4,3,,1,,,,,,,,,,,1,1,,,1,,,,,,,,,,,,,,,,,,,,,,,,,,,,,1,,,,,,,,
Odisha,NAYAGARH,20.16865275,85.0230013,,,,1,,1,1,26,,1,1,,,,,,,,,,,,,,,,,,,,,,,1,,,,1,,1,,,,,,,,,,,,,,,,,,,,,,,,,,,,,,,,,,,,,,,,,,,,,,,,,,,,
Odisha,NOWARANGPUR,19.50336381,82.30177141,,,,,,,,17,27,1,,,,,,,,,,,1,,,,,,,,,,,,,,,,,1,,,,,,,,,,,,,,,,,,,,,,,,,,,,,,,,,,,,1,,,,,,,,,,,,,,,,,,
Odisha,NUAPADA,20.6464757,82.47510266,2,,,,,,,39,,,,,,,,,,,,,,,,,,,,,,,,,,1,,,,,,1,,,,,,,,,,,,,,,,,,,,,,,,,,,,,,,,,,,,,,,,,,,,,,,,,,,,
Odisha,PURI,19.99960645,85.84879388,,,,2,,,4,23,1,,5,1,,2,1,,,,,,1,,,,,,,,,,,1,,1,1,,,,,,,,,,,,,,,,,,,,,,,,,,,,,,2,,,,,,,,,1,1,,,,,,,,,1,,,,,,,,
Odisha,RAYAGARH,20.129365,85.106151,7,,,,,,,18,8,,2,,2,,,,,,,,,11,,,,1,4,,,,,,,7,1,1,,2,,,,,,,,,,,,,,,,,,,,,,,,,,,,,,,,,,,,,,,,,,,,1,,,,,,,,,,
Odisha,SAMBALPUR,21.47238113,84.18536681,,,,,,1,3,58,2,1,1,33,,,,,,,,2,,2,1,,,9,2,1,,1,1,9,1,26,9,4,2,,,,,,,,,,,,2,,1,,1,,,,,,,,,,,,1,,,,,,,,,,,,,,,,,9,,2,,,,,,,,
Odisha,SONAPUR,19.11302,84.775995,,,,,1,5,1,62,,,,,,,,,,,,,,1,,,,,,,,,,,,2,,,,,,,,,,,,,,,,,,,,,,,,,,,,,,,,,,,,,,,,,,,,,,,,,,,,,,,,,,
Odisha,SUNDARGARH,21.96772166,84.77333113,,,,,1,,1,25,4,1,2,4,,,,,,,,3,,6,,,4,,19,10,,,,11,,107,117,4,28,37,,25,,,,,1,,,,1,1,2,,,,1,13,,,2,,2,,,,1,,,,,,,2,,,,,1,,,,1,5,,1,,,,,,,,
Puducherry,KARAIKAL,10.936609,79.79553588,,,,,,,,1,,,1,,3,,,,,,1,,,1,,,,,7,4,,,1,1,,4,4,,,,,,,,,,,,,,,,,,,,,,,,,,,,,,,,,,,,,1,,1,,,,,,,,1,,,,,,,,,,
Puducherry,MAHE,11.70305036,75.53412831,,,,,,5,,1,1,,,,1,,,,,,,2,,1,,,,,,,,,1,,,,,,,,,,,,,,,,,,,,,,,,1,1,,,,,,,,,,2,,,,,,,,,,,,,,,,,,,,,,,,,,
Puducherry,PONDICHERRY,11.92202036,79.77328585,,,1,,,3,5,10,16,,10,,12,8,3,,1,3,11,,1,53,19,,,2,29,61,3,52,7,147,3,15,16,2,3,9,,31,2,3,,1,,,1,,12,1,3,2,3,1,10,6,,,26,1,,,,1,4,,1,,,6,11,,,,,,,,,,,18,2,,,,,,3,,,
Puducherry,YANAM,16.71724086,82.26341687,,,,,,,,10,,2,,,,,,,,,,1,1,1,,,,,3,1,,8,1,10,,,,,1,,1,,,,,,,,,,,,,,,,,2,,,1,,,,,,1,,,,,,,,,,,1,,,,,,,,,,,,,,,,
Punjab,AMRITSAR,31.7222065,74.87375612,,,3,,12,1,5,71,5,2,9,,122,59,7,,9,1,1,,13,12,4,,,1,7,10,,28,11,14,,167,1,,12,,,31,,,,,2,,1,,3,3,,,1,1,18,25,,,,,1,,,2,,,,,2,,,,,,,,,,,1,,30,,2,1,,,,,,,
Punjab,Barnala,30.4029918,75.48176013,,,,,,1,,159,1,,1,,9,3,,,,,,,,9,,,,,1,,,2,,2,,24,1,1,,,,,,,,,,,,,,,,,,,,7,,8,,1,,,,8,,,,,,,,,,1,,,,,,,,,,1,,,,,,,,
Punjab,BHATINDA,30.13056305,75.06076625,15,,,,2,12,5,336,4,1,2,,7,2,,,,,1,,3,,2,,,6,3,6,,,1,,3,108,2,3,,3,,3,1,,,,,,,,9,,,,1,1,2,9,,,,,,,,,,,,,,,,1,,7,,,,,,,,12,,6,,,,,,,,
Punjab,FARIDKOT,30.59761094,74.82696997,2,,,,2,3,2,127,,,1,,1,,,,,,,2,2,6,,,,2,,1,,,,2,,57,,1,3,1,,,,,,,,,,,,,,,,,,3,,,,,,,,,,,,,,,,,,3,,,,,,,,1,,7,,,,,,,,
Punjab,FATEHGARHSAHEB,30.68608578,76.40933495,,,,,9,3,4,92,5,11,2,,,,,,,,,1,5,1,1,,,,5,,,1,1,1,,63,244,4,52,6,,14,,,,,,,,,,,,,,,5,30,,1,2,,3,,,,2,,,,,,,,,,,,,,,,1,5,,8,,,,,,,,
Punjab,FEROZPUR,31.00875467,74.87272612,22,,,,7,18,1,226,3,2,2,,,,,,,,,1,3,2,,,,1,3,,,,,9,,207,,3,,,,2,,,,,,,,,,,,,,1,,4,,,,,,,,,1,,,,,,,,,4,1,,,,,,,1,1,2,,,,,,,,
Punjab,GURDASPUR,31.94580951,75.24824438,,,,,,1,4,64,4,1,13,,,1,,,,,,1,9,3,,,,,,1,,,2,,,178,1,,54,,,1,,,,,,,,,,,,,,,4,49,,,,,,,,,,,,2,,,,,,,,,,,,,,13,,,,,,,,,,
Punjab,HOSHIARPUR,31.65342405,75.80758979,,,,,3,,3,53,2,1,4,1,2,13,3,,,1,,7,30,6,1,,,,11,3,1,1,2,2,,83,2,,7,,,6,,,,,,,,,,,,,1,,2,11,,,9,,,,,,1,,,,,,,,,2,,,,,,,,16,1,3,,,,,,,,
Punjab,JALANDHAR,31.22309976,75.57424162,,,,,24,,4,82,22,4,8,1,1,13,9,1,1,53,89,3,20,56,35,,,3,14,23,1,10,63,16,4,79,15,5,164,4,,278,,,,,1,,,,14,8,7,3,6,3,125,68,,12,77,,4,,,9,28,,,87,,5,1,2,,1,,,,,,1,,33,3,72,1,,,,1,,,
Punjab,KAPURTALA,31.37109448,75.29422061,,,,,11,2,2,88,4,3,7,,1,,,,,,,,,3,1,,,,,,,,2,1,,50,,,7,,,17,,,,,,,,,1,,2,2,,5,61,15,,,17,,21,,,,1,,,1,,,,,,,,,,,,,,10,1,32,,,,,1,,,
Punjab,LUDHIANA,30.77631153,75.99310342,1,,,,15,9,7,237,29,22,7,,337,179,202,2,725,,,6,24,90,10,,,3,7,21,1,14,46,34,1,156,176,3,57,25,,360,1,,1,,6,,,,22,1,2,,4,3,47,298,,2,104,,3,,,646,2,,,,,1,4,1,,2,,,,,,,,42,,14,,,,,,,,
Punjab,MANSA,29.99247048,75.43412424,16,,,,,6,1,141,3,,1,,2,,,,,,,6,,1,,,,1,1,,,1,,1,,71,,1,,,,,,,,,,,,,,,,,4,,,3,,,,,,,,,,,,,,,,,,4,,,,,,1,,,,1,,,,,,,,
Punjab,MOGA,30.69243564,75.24755767,1,,,,11,6,2,215,2,6,,,,1,,,,,,6,,,,,,,1,,,,1,1,,73,,1,2,,,2,,,,,,,,,,1,,,,,1,14,,,2,,,,,,,,,,,,,,,,,1,,,,,,8,,16,,,,,1,,,
Punjab,MUKATSAR,30.47064,74.527944,17,,,,1,4,2,104,1,1,1,,2,,,,,,,2,1,2,,,,,2,2,,,2,,,67,,2,,,,1,,,,,,,,,,,,,,,,2,,,,,,,,,,,,,,,,,,5,,,,,,,,2,,,,,,,,,,
Punjab,NAWAN SAHAR,31.124612,76.113924,,,,,,1,2,29,6,,1,,4,1,,,,,,2,6,3,,,,,1,1,,2,,1,,63,,,1,,,,,,,,,,,,,,,,,,,2,1,,,,,,,,,,,,,,,1,,2,,,,,,,,6,3,4,,,,,,,,
Punjab,PATHANKOT,32.31918829,75.59683793,,,,,1,,,5,1,,2,,1,,,,,,,,2,1,,,,,,,,,,1,,15,,1,,,,,,,,,1,,,,1,,,,,1,,1,,3,,,,,,,1,,,,,,,,,,,,,,,1,,3,,1,,,,,,,,
Punjab,PATIALA,30.31482286,76.31603559,,,,,3,3,3,324,10,25,15,,40,,,,,,,1,9,16,6,,,2,14,5,,5,1,25,,141,13,,5,4,,32,,,,,,,,,1,1,2,1,1,1,7,55,,,9,,,,,4,7,1,,1,,,,1,,1,,,,,,,,23,,12,,,,,2,,,
Punjab,RUPNAGAR,31.1466454,76.50153915,,,,,,,1,18,1,,2,,,,1,,,,,,4,,,,,,2,2,,,,,,98,,,,2,,1,,,,,,,,,,,,,,,,4,,,2,,,,,,,,,,,,,,,,1,,,,,,,2,1,,,,,,,,,
Punjab,SANGRUR,30.39426447,75.8072464,,,,,1,14,4,559,8,1,2,,7,,2,,1,,2,,2,14,,,,2,11,7,,1,1,19,,178,11,1,1,2,,25,,,,,,,,,2,2,,,,,4,32,,,,,2,,,5,,,,,,,,,,4,,1,,,,,,6,,1,,,,,,,,
Punjab,SAS NAGAR MOHALI,30.708627,76.691196,,,4,,3,,7,26,6,1,16,,31,2,2,,2,,5,,19,45,4,,,1,18,20,1,41,5,35,3,120,18,3,29,23,,60,6,,1,,3,4,,,13,1,4,3,2,1,14,73,,3,21,,10,,,1,3,,,,,6,1,1,,,1,,,,,2,,14,,1,1,,,,,,,
Punjab,TARAN TAARAN,31.36572293,74.87341278,,,,,2,,4,8,,,1,,2,,,,,,,,,1,,,,,,2,,,,1,1,47,,,,,,,,,,,1,,,,,,,,,,,2,,,,,,,,,,,,,,,,,,,,,,,,,,,,,,,,,,,,
Rajasthan,AJMER,26.17142302,74.77982725,2,,,,3,1,3,7,21,7,13,28,134,1,7,,,,,1,4,8,,,,5,4,13,,2,10,36,1,450,37,7,30,,,2,,,,,4,,,,2,2,,,,,3,46,,3,1,,2,,,,2,,,,,1,1,,,,,,,,,,10,24,,7,3,,,,,,,
Rajasthan,ALWAR,27.4683291,76.64126595,2,,1,,2,22,1,6,15,1,7,2,,,,,,,,1,,4,2,,,2,18,9,,7,1,13,,77,8,5,3,8,,6,,,,,,,,,4,,7,,,,10,5,1,2,11,,,,,1,2,,,,,,,2,,,,,,,,1,,5,,,,,,,,,,
Rajasthan,Balotra,25.832151,72.240653,,,,,,,1,,,,,,193,,,,,,,,,,,,,,1,,,,,1,,,,,,,,,,,,,,,,,,,1,,,,,,,,,,,,,,,,,,,,,,,,,,,,,1,,2,,,,,,,,,,
Rajasthan,BANSWARA,23.44036922,74.31147246,,,,,,,,1,1,,1,,9,3,,,,,1,,,2,1,,,,1,,,,,,,18,1,,,,,,,,,,,,,,,,,,,,,,,,,,,,,,,,,,,,,,,1,,1,,,,,,1,2,,,,,,,,,
Rajasthan,BARAN,24.97608592,76.73364674,,,,,,1,,,,,1,10,,,,,,,,,,,,,,,,,,,,,,,,,,,,,,,,,,,,,,,,,,,,1,,,,,,,,,,,,,,,,,,2,,,,,,,,,,,,,,,,,,
Rajasthan,BARMER,25.7641645,71.38243207,,,,,,1,2,1,,,,,6,1,2,,,,,,,,2,,,1,1,2,,,,1,,1,,,,,,1,,,,,,,,,,,,,,,,,,,,,,,,,,,,,,,,5,,8,,,,,,,,,,,,,,,,,,
Rajasthan,BEAWAR,26.117324,74.331437,12,,,,,1,1,,2,1,,13,19,1,2,,,,,,,1,,,,,,1,,2,,2,,52,2,,,,,,,,,,,,,,,3,,,,,,1,,,,,,,,,,,,,,,,,,2,,,,,,,,2,,1,,,,,,,,
Rajasthan,BHARATPUR,27.06764457,77.28613931,,,,,1,48,2,3,1,,2,,,,,,,,,1,,,1,,,,,1,,,,6,,28,1,,,,,9,,,,,,,,,,,,,,,,,,,,,,,,,,,,,,,,,,,,,,,,,,3,,1,,,,,,,,
Rajasthan,BHILWARA,25.43417428,74.78051386,7,,,,1,2,2,2,9,2,5,2,348,4,15,,,,,1,2,9,1,,,3,7,4,1,5,3,2,,128,9,3,,8,,4,,,,,,,,,2,,,,,,,3,,,,,,,,,2,,,,,,,1,,,,,,,,,2,7,1,1,1,,,,,,,
Rajasthan,BIKANER,28.19316009,73.27653088,2,,,,1,18,9,26,40,1,2,,115,26,2,,,,1,,,2,2,,,3,3,8,,3,,4,,55,,1,4,,,,,1,,,,,,,2,,,,,,1,,,,1,,,,,,2,,,,,,,,,8,1,,,,,,,8,,,,,,,,,,
Rajasthan,BUNDI,25.54666611,75.89986206,,,,,1,4,,30,,1,5,3,,1,,,,,,,,,1,,,,,,,,,,,14,,,,,,,,,,,,,,,,,,,,,,,,,,,,,,,,,,,,,,,,,,,,,,,,2,,,,,,,,,,
Rajasthan,CHITTAURGARH,24.96256528,74.68721946,2,,,,,3,1,1,2,,,,5,,,,,,,1,,,,,,1,11,4,1,1,,9,,108,,2,,2,,,,,,,,,,,,,,,,,2,,,,,,,,,,1,,,,,,,,,1,1,,,,,2,,5,1,,,,,,,,,
Rajasthan,CHURU,28.37426595,74.78154395,1,,,,,,2,,,,,1,,,1,,,,,,,,,,,1,,2,,,,,,4,,,,,,,,,,,,,,,,,,,,,,,,,,,,,,,11,,,,,,,,,,,,,,,,,1,,,,,,,,,,
Rajasthan,DAUSA,26.79640749,76.36543983,,,,,,5,1,,,,,1,1,,1,,,,,,,,,,,1,,,,,,,,12,,,,,,,,,,,,,,,,1,1,,,,1,,,,,,,,,,,,,,,1,,,,,,,,,,,,3,,,,,,,,,,
Rajasthan,Deedwana Kuchaman,27.223723,74.697433,,,,,,1,1,,40,,1,1,,,,,,,,,,,,,,1,,1,,,,,,48,2,,,,,,,,,,,,,,1,,,,,,,6,,,,,,,,,1,,,,,,,,,1,,,,,,,,1,,,,,,,,,,
Rajasthan,Deeg,27.476472,77.327279,,,,,,2,1,,,1,,,,,,,,,,,,,,,,,,1,,,,,,2,,,,,,,,,,,,,,,,,,,,,1,,,,,,,,,,,,,,,,,,,,,,,,,,,2,,,,,,,,,,
Rajasthan,DHAULPUR,26.73025255,77.65326389,,,,,,,8,,,,1,,,,1,,,,1,,,2,,,,1,,1,,3,,2,2,9,1,6,3,,,,,,,,,,,,,,,,,,,,,,,,,,,,,,,,,1,,,,,1,,,,,,,,,,,,,,,,,
Rajasthan,DUNGARPUR,23.77161718,73.93563337,,,,,,,,,,,,,,,2,,,,,,,,,,,,,,3,,,,,4,,,,,,,,,,,,,,,,,,,,1,,,,,,,,,,,1,,,,,,,,,,,,,,,,,,,,,,,,,,,
Rajasthan,GANGANAGAR,29.32905677,73.65395905,50,,,,,36,2,16,1,,5,,,,,,,,,,,,3,,,,,,,3,1,2,,339,,1,2,,,,,,,,,,,,,,,,,,,,,,,,,,,,1,,,,,,,,,1,,,,,,,,8,1,1,,,,,,,,
Rajasthan,HANUMAN GARH,29.584762,74.328346,49,,,,,6,5,16,1,2,1,,,,,,,,,,4,2,,,,,6,7,,1,1,,,385,,,2,,,2,,,,,,,,,2,,,,2,,1,4,,,,,,,,,,,,,,,,,,1,,,,,,,,2,1,3,,,,,,,,
Rajasthan,JAIPUR,27.02677536,75.8995188,1,,1,,3,29,27,35,59,13,11,2,31,69,561,,1,5,43,10,67,83,22,,,7,22,46,2,48,44,119,8,199,111,38,85,32,,51,5,1,1,,16,1,,,61,6,62,6,1,6,77,47,,6,14,,2,,,2,156,155,,,17,4,11,5,,1,1,,,,,,2,94,,24,3,,,,1,,,1
Rajasthan,JAISALMER,26.9590888,70.8116467,,,,,,,2,1,,,1,,1,,,,,,,,,,,,,,,,,,,,,6,,,,,,,,,,,,,,,,,,,,,1,,,,,,,,,,,,,,,,,,,29,,,,,,,,1,,,,,,,,,,
Rajasthan,JALORE,25.130322,72.14229449,,,,,,,4,,4,,2,,,,,,,,,,,,,,,,,,,1,,1,,3,1,1,2,,,,,,,,,,,,1,,,,,,,,,,,,,,,,,,,,,,,,,1,,,,,,,,1,,,,,,,,,,
Rajasthan,JHALWAR,24.38274766,76.36303647,,,,,1,,1,,1,,,,2,,,1,,,,,,1,,,,,,,,,,,,4,,,,,,,,,,,,,,,,,,,,,,,,,,,,,,,,,,,,,,,,,,,,,,,,1,,,,,,,,,,
Rajasthan,JHUNJHUNU,28.09149423,75.52697803,,,,,,1,1,,,1,2,,,,,,,,,,1,,2,,,,,,,,,,,5,,1,,,,1,,,,,,,,,,,,,,,,,,,,,,,,,1,,,,,,,,,,,,,,,,,3,,,,,,,,,,
Rajasthan,JODHPUR,26.68963869,72.89880161,4,,,,,7,2,19,27,4,6,6,95,,6,,,5,,6,42,15,4,,,4,9,37,1,7,8,26,,67,96,3,3,4,2,45,,,,1,2,,,,4,,,1,1,,21,28,,,3,,4,,,,262,1,,,24,2,11,2,,21,1,,,,,,,26,1,6,3,,,,,,,
Rajasthan,KARAULI,26.49657043,77.1024849,,,,,,1,,1,,,,6,,,,,,,,,,,,,,,,,,,,,,1,,,1,,,,,,,,,,,,,,,,,,,,,,,,,,,,,,,,,,,,,,,,,,,,,,,,,,,,,,,
Rajasthan,Khairtal-Tijara,27.909017,76.710286,,,,,3,17,2,7,14,2,7,,24,5,4,,2,,17,,18,53,4,,,6,56,55,5,31,42,168,9,55,80,63,52,23,,67,3,1,1,,4,1,2,,23,10,86,9,4,9,53,24,2,5,90,,1,,,22,20,,,,8,5,7,1,,,,,,,,1,2,7,,2,,,,,1,,,1
Rajasthan,KOTA,25.09194072,75.9920732,1,,,,,8,4,7,8,1,2,12,,1,,,,,,1,2,3,1,,,,14,2,,1,3,7,1,27,7,1,2,3,,2,4,,,,1,,,,1,,3,,,,3,3,,,,,,,,,1,,,,,,1,,,1,,,,,,,,22,2,3,1,,,,,,,
Rajasthan,Kotputli-Behrod,27.718122,76.270221,,,,,3,1,,3,8,3,7,,5,3,1,,,,,,4,16,1,,,4,11,16,1,7,13,36,4,45,10,18,6,9,,12,,,,,,,,,3,,15,1,5,3,32,5,,1,30,,,,,5,7,,,,1,,1,,,,,,,,,,,2,,2,,,,,,,,
Rajasthan,KOTPUTLI-BEHROR,27.722985,76.270221,,,,,,2,3,,1,,2,,2,1,,,,1,,,,2,,,,,3,5,1,3,,1,1,7,,1,,1,,,,,,,,,,,1,,,,,,1,1,,1,,,,,,,,,,,,,1,,,1,,,,,,,,2,,,,,,,,,,
Rajasthan,NAGAUR,27.18993079,74.02897697,7,,,,,4,6,4,10,,1,1,,,,,,,,,,,,,,,2,2,,1,,1,,29,,,,,,,,,,,,,,,,,1,,,,,,,,,,,,,,,,,,,,,,,3,,,,,,,1,7,,2,2,,,,,,,
Rajasthan,PALI,25.75958133,73.55872083,,,,,,7,4,5,2,1,3,,211,,7,,,,,,,3,1,,,3,3,8,,22,1,2,,25,5,1,1,,,5,,,,,,,,,,,1,,,,,,,,,,,,,,,,,,,,12,,,,,,,,,,,2,,,1,,,,,,,
Rajasthan,PHALODI,27.136995,72.368241,1,,,,,,,,,,,,,,,,,,,,,,,,,,,,,,,1,,,,,,,,,,,,,,,,,,,,,,,,,,,,,,,,,,,,,,,,,,35,,,,,,,,1,,,,,,,,,,
Rajasthan,PRATAPGARH,25.90846758,81.77869678,1,,,,,,,,,,,1,,1,,,,,,,,,,,,,,,,,,,,1,,,,,,,,,,,,,,,,,,,,,,,,,,,,,,,,,,,,,,,,,,,,,,,,,,,,,,,,,,
Rajasthan,RAJSAMAND,25.22968626,73.74606374,,,,,,,1,2,2,,,3,,1,,,,,,,,1,,,,1,,1,,,2,1,,130,,3,,,,,,,,,,,,,,,,,,,,,,,,,,,,,2,,,,,,,,,,,,,,,,,,,,,,,,2,,,
Rajasthan,Salumber,24.135992,74.038123,,,,,,,,,,,,,,,,,,,,,,,,,,,,,,,,,,3,,,,,,,,,,,,,,,,,,,,,,,,,,,,,,,,,,,,,,,,1,,,,,,,,,,,,,,,,,,
Rajasthan,SAWAI MADHOPUR,26.2416177,76.36269323,,,,,,,1,2,,,1,4,,1,,,,,,,,,,,,,,1,,,,,,,,,,,,,,,,,,,,,,,,,,,,,,,,,,,,,,,,,,,,,,,,,,,,,,2,,,,,,,,,,
Rajasthan,SIKAR,27.60306576,75.24721421,,,,,,,2,,5,3,6,,4,,,,,,9,,5,2,1,,,,,2,1,,1,6,,17,3,1,4,1,,5,,,,,,,,,6,,5,,,1,1,,,,1,,,,,1,3,,,,,,,,,,,,,,,,,6,,,1,,,,,,,
Rajasthan,SIROHI,24.75292792,72.80461766,,,,,1,7,4,1,,,1,,,,,,,,2,,,1,,,,3,4,6,,2,1,5,,83,18,,1,,,5,,,,,,,,,,,,,,,,1,,,,,,,,,,,,,,,,,,3,,,,,,,,1,,,,,,,,,,
Rajasthan,TONK,26.16789371,75.62217678,,,1,,,22,4,1,1,1,,7,1,1,,,,,,,1,1,,,,3,,1,,,,1,,12,,,,2,,,,,,,,,1,,1,,,,,,1,,,1,,,,,,,,,,,,,1,,,2,,,,,,,,2,,,,,,,,,,
Rajasthan,UDAIPUR,24.20369115,73.65327219,,,,,1,6,2,15,7,2,3,1,4,1,1,,1,,,1,1,12,3,,1,3,34,18,,18,4,37,1,156,1,1,1,1,,,2,1,,,6,,,,5,1,2,3,,2,3,20,,,1,,,,,1,10,,,,,,,,,,,,,3,,2,1,14,,1,1,,,,2,,,
Sikkim,EAST,28.63154003,77.30303115,,,,,1,,1,,4,,4,,,,,,,,,,,6,9,,,1,,,,25,,2,,1,,,1,,,1,,,,,1,,,,,,,,,1,,,,,,,,,,,,,,,,,,,,,1,,,,,,,1,,,,,,,,,,
Sikkim,SOUTH,28.47573488,77.18336241,,,,,,,1,,2,,3,,,,,,,,,,,3,,,,,,3,,14,,1,,,,1,,,,,,,,,,,,,,,,,1,1,,,,,,,,,,,,,,,,,,,,,,,,,,,,,,,,,,,,,,
Tamilnadu,ARIYALUR,11.24305806,79.29021187,2,,,,,1,1,4,5,,1,,,,,,,,,,,,,,,,,2,,,,,,7,,,,,,,,,,,,,,,,,,,,,,,,,,,,,,,,,,,,,,,,,,,,,,,,10,,,,,,,,,,
Tamilnadu,CHENGALPATTU,12.52967922,80.00842985,,3,1,2,1,3,6,16,27,,17,,4,8,64,,7,109,23,,6,21,16,,,8,12,54,,52,40,60,5,115,15,12,15,32,1,112,38,2,5,,5,2,,1,41,2,12,4,11,13,73,44,8,3,199,,5,3,1,2,6,5,1,1,,9,29,2,1,,,,,,1,4,1,55,3,3,2,,,,1,,,2
Tamilnadu,CHENNAI,13.10699488,80.25443358,,,,6,2,5,4,13,53,1,5,3,,8,181,,2,68,20,,8,60,120,,,5,15,39,1,25,20,102,3,18,16,26,8,35,1,225,23,1,2,3,13,5,,,42,4,10,9,3,14,88,68,3,1,121,1,5,,,6,17,27,,,,14,34,12,2,,,,1,2,,7,1,249,22,4,7,,,6,10,3,1,3
Tamilnadu,COIMBATORE,10.97039106,76.91820827,15,,,1,10,8,17,37,131,39,21,,818,167,69,,64,2,23,4,61,121,46,,,14,41,63,7,8,45,137,4,150,45,18,335,87,2,299,29,,,2,11,,1,,88,9,34,4,33,26,575,412,12,6,127,,1,4,,17,62,41,1,1,,9,25,7,,1,2,,,,1,1,2,197,25,2,,,,1,3,,,
Tamilnadu,CUDDALORE,11.61444588,79.65038073,1,,,1,1,2,3,33,61,,18,,6,6,2,,,,,,,3,5,,,1,14,30,,3,1,3,1,45,,2,1,7,,3,,,,,,1,,,2,,,,,,2,1,,,,,,,,,1,,,,,,,1,,2,1,,1,1,,1,,35,9,2,,,,,,,,
Tamilnadu,DHARAMAPURI,12.09600508,78.20186561,2,,,,8,2,23,34,3,,4,,24,5,14,,4,,,,,1,3,,,,3,19,,,1,3,,12,1,2,1,1,,2,,,,,,,,,,1,,,,,,,,,,,,,,,2,,,,,,,,,,,,1,,,,3,31,1,,,,,,,,,
Tamilnadu,DINDIGUL,10.47778035,77.8365551,7,,4,,17,5,33,67,53,5,11,,234,27,22,,2,29,,3,4,51,1,,,3,5,27,1,3,7,26,2,105,10,,4,10,,8,,,,,,,,,2,,1,,,,1,6,1,,5,,,,,,6,,,,1,,2,2,,9,,,,1,,,,23,3,3,1,,,,1,,,
Tamilnadu,ERODE,11.51921618,77.28614315,14,,,,5,49,23,129,50,21,4,,699,87,46,,138,35,,,3,69,8,,2,10,28,18,,7,12,54,1,66,14,5,8,10,,12,3,,,,,,,,10,3,3,,3,1,9,13,,6,3,,,,,,6,,,,,2,,4,,,,1,1,,,,,69,8,,1,,,,,,,1
Tamilnadu,KALLAKURICHI,11.77413176,79.10986033,2,,,,,3,12,70,5,,1,,,1,1,,,,,,,1,,,,,2,13,,1,,1,,2,,,,,,,,,,,,,,,1,,,,,,1,,,,1,,,,,,,,,,,,,,,,1,1,,,,,,5,1,1,,,,,,,,
Tamilnadu,KANCHEEPURAM,12.83846586,79.78432579,,,,1,3,,7,79,25,2,17,,2,10,50,,,21,11,1,5,47,10,,,5,18,43,1,33,48,141,9,61,31,12,18,63,3,155,27,2,20,6,2,1,1,,41,1,17,10,7,32,115,74,6,8,364,2,4,,,9,14,3,,1,2,13,47,5,,1,1,,1,1,1,1,2,33,1,12,1,,,,2,,,1
Tamilnadu,KANNIYAKUMARI,8.326575226,77.3322694,,2,,5,,1,1,6,389,,10,3,2,69,3,,,,,1,10,4,13,,,,1,1,3,4,31,6,,34,,,,5,,4,,,,,,,,,6,,,,,2,3,,,,,,,,,,8,1,,,,4,,1,,,,,,,,,1,55,2,,,,,,1,,,
Tamilnadu,KARUR,10.88837018,78.15609844,,,,,1,2,6,12,4,2,2,,109,623,16,,4,2,,,2,38,10,,,,2,11,6,,3,26,3,69,2,,1,3,,2,1,,,,,,,,,,,,1,2,,1,2,49,2,,,,,1,6,,,,,,1,2,,1,,,,,,,,37,3,,,,,,2,,,
Tamilnadu,KRISHNAGIRI,12.6285279,78.01936561,2,,2,,71,1,27,3,12,11,4,1,3,5,24,,1,2,4,,7,53,3,,,3,13,47,,25,18,76,4,334,24,3,26,48,,180,19,,2,,19,,,,12,7,11,4,2,10,33,36,8,12,124,,4,6,,29,16,27,,,1,1,3,1,,,1,,,,,1,,35,4,5,,,,,4,,1,
Tamilnadu,MADURAI,9.956487842,78.01953726,11,,,,6,7,8,193,83,2,16,,119,35,98,,3,1,3,2,14,28,33,,,5,21,64,2,28,97,75,1,156,2,8,9,8,,65,1,,,,,,,,4,,,1,3,2,6,21,,2,11,,,,,,20,8,,,,3,8,2,,1,,,,,,,1,117,13,6,4,,,,1,,1,
Tamilnadu,NAGAPATTINAM,10.76876277,79.78415412,,8,1,,,,1,12,1,3,1,1,,,,,3,,,,,1,,,,1,,3,,,6,,,9,2,,,1,,,,,,,,,,,,,,,,,,,,,,1,,,,,1,,,,,,,1,,5,1,,,,,,,8,3,,,,,,,,,
Tamilnadu,NAMAKKAL,11.28633865,78.11031148,,,,1,2,13,9,175,35,18,1,20,371,13,14,,2,,1,,1,29,2,,,1,4,6,1,2,4,20,,53,5,,,3,,,,,,,,,,,,,,,,1,,7,,7,2,,,,,,,1,,,,,,2,,,,1,,,,,1,32,3,,,,,,3,,,
Tamilnadu,PERAMBALUR,11.22926789,78.92899443,10,,,,,,6,9,3,,1,,,2,2,,1,,1,1,,,,,,,,1,,1,2,,,9,,,,,,,,,,,,,,,,,,,,,,,,,,,,,,,,,,,,,,,,1,,,,,,,,12,,,,,,,,,,
Tamilnadu,PUDUKKOTTAI,10.34111919,78.92847944,,,,2,,1,4,49,16,,7,4,3,6,1,,1,,,1,1,5,3,,,,4,17,,,5,12,2,15,5,2,3,82,,37,,,,,,,,,1,10,,,,1,10,2,,1,1,,,,,1,1,,,,,,1,,,1,,,,,,,,9,4,,,,,,,,,
Tamilnadu,RAMANATHAPURAM,9.410010901,78.70175138,,5,,10,,,1,2,2,1,2,1,20,1,1,,,,,,1,1,3,,,,4,8,1,,1,1,,39,,,1,6,,,1,,,,,,,,,,1,,,,,,,,2,,,,,,,,,,,,,,,10,,,,,,,,17,,,,,,,,,,
Tamilnadu,RANIPET,12.91549163,79.42554784,,,,,1,1,8,18,3,,3,10,3,2,10,,,243,112,,2,7,,,,5,12,12,1,6,4,10,,30,9,,21,190,,62,,,,,1,,,,2,,,,,1,42,3,,,24,,1,,,,1,,,,3,,1,,,,3,,,,1,3,1,8,,1,,,,,,,,
Tamilnadu,SALEM,11.73765094,78.20203727,32,,,,5,17,16,265,49,4,11,24,235,30,47,,9,,10,20,5,12,10,,,1,27,47,4,3,10,42,,96,24,5,3,11,,28,2,,,,,,,,9,5,4,,1,1,2,7,,2,2,,1,1,,,6,3,,,,4,,4,,1,,,,,,1,,103,9,2,,,,,1,,,
Tamilnadu,SIVAGANGA,9.975448615,78.5659121,,,,,,3,5,63,6,,3,,20,6,3,,1,,,2,,6,1,,2,2,3,12,,2,,11,,84,1,1,,2,,2,,,,,,,,,,,,,,,1,,,,1,,,,,3,4,,,1,,,2,,,1,,,,,,,,20,6,,,,,,,,,
Tamilnadu,TENKASI,9.063993395,77.47053908,,,,,1,6,5,34,9,,1,415,13,3,1,,,,,31,3,6,1,,,,3,52,,2,1,5,,23,,1,,,,1,,,,,,,,,,,,,,,1,1,,,,,,,,,3,,,,,,1,1,,,,,,,,,,8,2,,,,,,,,,
Tamilnadu,THANJAVUR,10.66140789,79.24425516,,,,1,2,2,3,47,14,,8,5,3,5,3,,2,1,,,5,2,7,,,2,6,6,,4,2,8,,14,1,3,3,54,,7,,,,,,,,,,,,,,,5,1,,,1,,,,,,6,,,,,,,,,1,,,,,1,1,3,45,7,,,,,,,,,1
Tamilnadu,The NILGIRIS,11.49429292,76.73330735,,,,,,,1,,222,,,,,,1,,,,,,,2,1,,,,,,,1,1,1,,,,,,,,1,,,,,,,,,,,,,,,,12,,,,,,,,,,,,,,1,,,,,,,,,,,,16,,,,,,,8,,,
Tamilnadu,THENI,9.936362433,77.46916579,41,,,,6,9,12,36,42,1,3,2,51,20,16,,5,,,,2,2,2,,,,4,7,,3,6,2,,11,,,,,,2,,,,,,,,,,1,,,,,,,,,,,,,,,1,,,,,,,,,,,,,,,,,28,1,,,,,,,,,
Tamilnadu,THIRUVALLUR,13.26743186,80.00602246,,,,1,2,15,3,187,87,15,51,5,5,20,169,,2,24,36,1,34,127,41,,2,37,64,98,3,44,71,172,3,402,131,53,66,151,1,407,14,1,1,2,11,,,,55,6,21,7,5,28,205,135,2,15,353,1,11,3,1,14,20,1,,1,3,16,42,17,1,3,3,,1,,,3,4,149,8,43,,,,,13,3,2,1
Tamilnadu,TIRUCHIRAPPALLI,11.03762898,78.5659121,7,,,,1,4,16,173,35,2,11,1,8,20,9,,1,4,,1,17,3,23,,,4,15,30,,3,6,22,2,72,25,2,10,245,,55,2,,,,,,,,5,3,,,,2,25,8,,4,3,,,,,,11,1,,,1,,1,1,,2,1,,,,,,1,97,1,,,,,,,,,1
Tamilnadu,TIRUNELVELI,8.551704635,77.65309607,,,,3,2,,9,12,21,2,7,327,27,,19,,1,1,,7,9,25,18,,,,3,14,,4,6,12,1,110,2,2,2,1,,37,,,,,,,,,1,1,,2,1,2,1,3,,,1,,,,,,7,1,,1,,,8,1,,8,1,,,,,1,,70,4,,1,,,,,,,
Tamilnadu,TIRUPATHUR,12.60945822,78.61132681,,,,,7,,6,1,3,1,1,11,2,,20,,,263,238,1,,9,,,,1,2,21,,,1,1,,4,,,,,,3,,,,,,,,,,,,,,,,2,,,,,,,,,3,,,2,,,,1,,,,,,,,4,,5,3,,,,,,,,,
Tamilnadu,Tiruppur,10.81648207,77.4700241,19,,3,,6,43,25,77,11,28,5,,1484,641,132,1,3961,,,1,5,108,86,,2,2,10,11,2,3,6,70,1,67,9,1,24,11,,12,,,,1,,,,,2,1,2,1,,1,21,34,1,1,3,,1,,,,6,2,,,1,1,5,2,,3,1,,2,15,,,,55,14,,,,,,,,,
Tamilnadu,TIRUVANAMALAI,12.49464592,79.10934535,,,,,1,1,26,84,3,,1,1,22,,6,,1,,7,,,6,,,,1,5,4,,2,3,7,,11,,2,1,1,,6,,,,,,,,,1,1,,,,1,1,4,,,5,,,,,,,,,,,,,,,1,1,,,,,,1,11,1,,,,,,,,,
Tamilnadu,TIRUVARUR,10.771144,79.634564,1,,,,,,,31,4,,2,1,,2,,,2,,,,,,1,,,,5,1,,3,,,,4,,,,,,,,,,,,,,,,,,,,,,2,,,,,,,,,1,,,,,,,,,,,,,,,,,8,4,,,,,,,,,
Tamilnadu,TOOTHUKUDI,10.71406618,79.47038707,21,11,,33,2,19,1,34,109,2,16,5,32,21,11,,1,,,38,31,28,6,,,2,33,171,,8,1,26,,109,2,3,2,5,,9,,,,,,,,,,,,,2,,2,,,,,5,,,,,3,,,,,,19,2,,23,,,2,,,1,,43,5,3,,,,,,,,
Tamilnadu,VELLORE,12.89675226,78.97389941,,,,,,2,5,5,13,1,2,16,4,,3,,2,41,79,,,3,6,,,1,3,47,,2,3,7,1,18,1,,9,83,,23,,,,,2,,,,1,,,,,,12,1,1,1,2,,,,,2,7,,,,1,,,,1,,,,,,,2,1,42,2,,,,,,,,,
Tamilnadu,VILUPPURAM,12.14788921,79.47090206,1,6,,7,2,4,11,42,11,3,7,,2,4,11,,1,,3,,1,7,1,,,,13,39,,12,4,5,,18,,2,,7,,10,1,,,,,,,,3,,,,,,,2,,,2,,,,,1,1,,1,,,5,2,,,,1,,,,,1,1,22,5,1,,,,,1,,,
Tamilnadu,VIRUDHUNAGAR,9.424318686,77.83689842,46,3,,4,4,25,2,89,26,3,3,,299,17,71,,1,,,3,25,286,385,,,2,16,1317,,14,2,122,,36,1,19,1,10,,43,2,,,,,,,,,,,1,,1,1,2,,,1,,,,,,2,,,,,1,,1,,6,3,,1,,,2,,47,8,2,,,,,,,,
Telangana,ADILABAD,19.49310094,78.56556883,47,,,,,23,,14,,,,1,2,,,,,,,,,1,,,,1,,,,1,,,,10,,,,,,,,,,,,,,,,,,,,1,,,,,,,,,,,,,,,,,,1,,1,,,,,,,,2,1,,,,,,,,,
Telangana,BHADRADRI,17.755518,80.707003,5,,,,,1,1,51,,,,,,,,,,,,,1,52,,,,,2,2,,,,,,32,2,,,,,1,,,,,,,,,,,,,,,,,,,,,,,,,,,,,,,,,,8,,,,,,,,2,,,,,,,,,,
Telangana,HANUMAKONDA,18.008019,79.548078,36,,,,,3,1,90,29,,,4,48,,3,,1,1,,4,,2,3,,,2,2,,,2,2,5,,138,1,,,,,1,,,,,,,,,1,,,,3,,,,,,,,,,,,,,,,,,,,,,,,,,,,,17,,17,2,,,,,,,
Telangana,HYDERABAD,17.40444196,78.45223671,1,,,,1,1,7,4,32,,,5,2,2,1,,,,2,5,3,7,62,,,,1,5,,8,5,25,1,3,2,4,4,12,,15,3,,1,,2,2,,,5,1,1,1,1,,10,5,,,1,,,1,,,6,7,,1,,2,,5,,,,,,,,,1,100,4,,14,4,,2,2,,,1
Telangana,JAGITAL,18.75432937,78.74744775,1,,,,,,,157,1,,,3,2,,,,,,,,,,,,,,,,,,,,,13,,,,,,,,,,,,,,,,,,,,,,2,,,,,,,,,,,,,,,,,,,,,,,,,,,,1,,,,,,,,
Telangana,JANGAON,17.66298708,79.28986858,14,,,,,2,1,74,,1,1,,1,,,,,,,3,1,,,,,,,,,,,,,11,,,,,,,,,,,,,,,,,,,,,,,,,,,,,,,,,,,,,,,,,,,,,,,,,,,,,,,,,,
Telangana,JAYASHANKAR,17.425762,78.522587,4,,,,,,,38,,,,,,,,,,,,,,,,,,,,,,,,,,5,,,,,,,,,,,,,,,,,,,,,,,,,,,,,,,,,,,,,,,,1,,,,,,,,,,,,,,,,,,
Telangana,JOGULAMBA,16.090165,77.764206,23,,,,,1,1,68,,2,1,,2,,,,,,,,,,,,,1,1,,,,,2,,3,,,,1,,,,,,,,,,,,,,,,,,,,,,,,,,,,,,,,,,,,2,,,,,1,,,2,,3,,,,,,,,
Telangana,KAMAREDDY,18.33544374,78.02022395,13,,,,,1,,148,1,,1,3,,,,,,,,1,,,,,,,,,,3,,2,,21,,,,1,,1,,,,,,,,,,,,,,,,1,,,,,,,,,,,,,,,,,,19,,,,,,,,1,,,,,,,1,,,
Telangana,KARIMNAGAR,18.36213316,79.24477018,44,,,,1,5,5,213,5,3,2,2,4,,,,,,,3,,,4,,,,,3,,,,4,,391,,1,,1,,1,,,,,,,,,,,,,,,1,,,,,,,,,,,,,,,,,,,3,,,,,,,,18,1,,4,,,,,,,
Telangana,KHAMMAM,17.14851779,80.18733344,17,,,,1,3,5,128,6,,4,,2,,,,,,,4,2,7,3,,,1,3,2,,2,1,5,,601,1,,,,,2,,,,,,,,,,,,,,,1,1,,,,,,,,,3,,,,,,,2,,2,,,,,1,,,9,,39,3,,,,,,,
Telangana,KOMARAM BHEEM,19.397143,79.391328,16,,,,,3,,27,1,,,,,,,,,,,1,,,,,,,,,,,,,,4,,,,1,,,,,,,,,,,,,,,,,,,,,,,,,,,,,,,,,,,,,,,,,,,,,,,,,,,,,,
Telangana,MAHABUBABAD,17.70046935,80.00860154,6,,,,,2,1,84,3,,,,,,,,,,,,,,,,,,,,,1,,1,,28,,,,,,,,,,,,,,,,,,,,,,,,,,,,,,,,,,,,,,,,,,,,,,,,,,3,,,,,,,,
